[
  {
    "id": 895,
    "name": "Barrow-Jackson Daylight",
    "lodge_num": 766,
    "lodge_phone": "770-868-7571",
    "meeting_times": "1st Wednesday of each month",
    "address": "111 Hall St.",
    "address2": "",
    "city": "Hoschton",
    "state": "GA",
    "zip": "30548",
    "lat": 34.0949374,
    "lng": -83.7667247,
    "charter_date": "10/27/1909"
  },
  {
    "id": 894,
    "name": "Marquis De Lafayette DL",
    "lodge_num": 765,
    "lodge_phone": "",
    "meeting_times": "2nd Saturday, 9:00 AM",
    "address": "201 N. Duke St.",
    "address2": "",
    "city": "Lafayette",
    "state": "GA",
    "zip": "30728",
    "lat": 34.7067096,
    "lng": -85.2804245,
    "charter_date": "10/27/1909"
  },
  {
    "id": 893,
    "name": "Battlefield DL",
    "lodge_num": 764,
    "lodge_phone": "",
    "meeting_times": "4th Thursday 10:00 AM ex 3rd Thursday 10:00 AM in Nov & Dec",
    "address": "202 LaFayette Rd.",
    "address2": "",
    "city": "Fort Oglethorpe",
    "state": "GA",
    "zip": "30707",
    "lat": 34.8802438,
    "lng": -85.2712461,
    "charter_date": "10/27/1909"
  },
  {
    "id": 890,
    "name": "Hall County DL",
    "lodge_num": 763,
    "lodge_phone": "770-530-8218",
    "meeting_times": "2nd Wednesday 10:00 AM",
    "address": "621 Lakeshore Dr., N.W.",
    "address2": "",
    "city": "Gainesville",
    "state": "GA",
    "zip": "30501",
    "lat": 34.29701,
    "lng": -83.847027,
    "charter_date": "10/27/1909"
  },
  {
    "id": 889,
    "name": "Tybee Island",
    "lodge_num": 762,
    "lodge_phone": "252-675-9462",
    "meeting_times": "1st & 3rd Tues, 6:30 pm, Jun, Jul, Aug, & Dec 1st Tue only",
    "address": "1 Meddin Dr",
    "address2": "",
    "city": "Tybee Island",
    "state": "GA",
    "zip": "31328",
    "lat": 32.018985,
    "lng": -80.8468304,
    "charter_date": "10/27/1909"
  },
  {
    "id": 888,
    "name": "Flint River DL",
    "lodge_num": 761,
    "lodge_phone": "",
    "meeting_times": "2nd & 4th Wed, 10:00am, 2nd Wed in Nov & Dec",
    "address": "631 N. Church St.",
    "address2": "",
    "city": "Thomaston",
    "state": "GA",
    "zip": "30286",
    "lat": 32.9016309,
    "lng": -84.3291512,
    "charter_date": "10/27/1909"
  },
  {
    "id": 885,
    "name": "James E. Miller DL",
    "lodge_num": 760,
    "lodge_phone": "7065822773",
    "meeting_times": "2nd Fri, 10:00 am",
    "address": "3614 Norris Rd",
    "address2": "",
    "city": "Columbus",
    "state": "GA",
    "zip": "31907",
    "lat": 32.492913,
    "lng": -84.934375,
    "charter_date": "10/27/1909"
  },
  {
    "id": 883,
    "name": "Georgia Mountain DL",
    "lodge_num": 758,
    "lodge_phone": "",
    "meeting_times": "3rd Wed, 10:00 am",
    "address": "195 Mashburn Lane",
    "address2": "",
    "city": "Canton",
    "state": "GA",
    "zip": "30114",
    "lat": 34.2489686,
    "lng": -84.4965742,
    "charter_date": "10/27/1909"
  },
  {
    "id": 882,
    "name": "Hayden M. Carmichael DL",
    "lodge_num": 757,
    "lodge_phone": "",
    "meeting_times": "3rd Sat, 9:30 am",
    "address": "10957 Old River Rd North",
    "address2": "",
    "city": "Statesboro",
    "state": "GA",
    "zip": "30461",
    "lat": 32.5758981,
    "lng": -81.7677125,
    "charter_date": "10/27/1909"
  },
  {
    "id": 881,
    "name": "Middle Georgia DL",
    "lodge_num": 756,
    "lodge_phone": "478-396-2881",
    "meeting_times": "1st Mon, 10:00 am, ",
    "address": "226 Azalea Ave",
    "address2": "",
    "city": "Bonaire",
    "state": "GA",
    "zip": "31005",
    "lat": 32.544038,
    "lng": -83.601797,
    "charter_date": "10/27/1909"
  },
  {
    "id": 447,
    "name": "Palmetto DL",
    "lodge_num": 755,
    "lodge_phone": "770-251-4594",
    "meeting_times": "2nd & 4th Sat, 8:00 am, Except 4th Sat only in Sept. & 2nd Sat. Only Nov & Dec",
    "address": "504A Park St",
    "address2": "",
    "city": "Palmetto",
    "state": "GA",
    "zip": "30268",
    "lat": 33.524748,
    "lng": -84.665639,
    "charter_date": "10/27/1909"
  },
  {
    "id": 446,
    "name": "Charity DL",
    "lodge_num": 754,
    "lodge_phone": "770-597-6556",
    "meeting_times": "1st Thursday 10:30 am",
    "address": "400 Ponce de Leon Ave",
    "address2": "",
    "city": "Atlanta",
    "state": "GA",
    "zip": "30308",
    "lat": 33.7733897,
    "lng": -84.3746939,
    "charter_date": "10/27/1909"
  },
  {
    "id": 445,
    "name": "Wm. A. Davis DL",
    "lodge_num": 753,
    "lodge_phone": "",
    "meeting_times": "2nd & 4th Wed, 10:00am 2nd Wed in Oct, Nov & Dec",
    "address": "2936 Riverside Dr",
    "address2": "",
    "city": "Macon",
    "state": "GA",
    "zip": "31204",
    "lat": 32.882167,
    "lng": -83.670728,
    "charter_date": "10/27/1909"
  },
  {
    "id": 443,
    "name": "Seven Hills DL",
    "lodge_num": 751,
    "lodge_phone": "",
    "meeting_times": "1st Thu 11:00 am",
    "address": "2008 N. Broad St",
    "address2": "",
    "city": "Rome",
    "state": "GA",
    "zip": "30161",
    "lat": 34.2720173,
    "lng": -85.1515608,
    "charter_date": "10/27/1909"
  },
  {
    "id": 442,
    "name": "Coastal DL",
    "lodge_num": 750,
    "lodge_phone": "",
    "meeting_times": "2nd Mon 10:00 am",
    "address": "2001 E. DeRenne Ave",
    "address2": "",
    "city": "Savannah",
    "state": "GA",
    "zip": "31406",
    "lat": 32.0198449,
    "lng": -81.078479,
    "charter_date": "10/27/1909"
  },
  {
    "id": 441,
    "name": "Clarence H. Cohen Daylight",
    "lodge_num": 749,
    "lodge_phone": "",
    "meeting_times": "2nd Sat 10 am / 1st Sat Jun 10 am",
    "address": " 3730 Wheeler Rd",
    "address2": "",
    "city": "Augusta",
    "state": "GA",
    "zip": "30909",
    "lat": 33.515968,
    "lng": -82.072286,
    "charter_date": "10/28/1914"
  },
  {
    "id": 440,
    "name": "Johnnie's Hill",
    "lodge_num": 748,
    "lodge_phone": "",
    "meeting_times": "3rd Tue, 7:30 pm",
    "address": "2444 Mountain Creek Church Rd",
    "address2": "",
    "city": "Pendergrass",
    "state": "GA",
    "zip": "30575",
    "lat": 34.179898,
    "lng": -83.7369627,
    "charter_date": "10/27/1909"
  },
  {
    "id": 439,
    "name": "Wm. G. England DL",
    "lodge_num": 747,
    "lodge_phone": "",
    "meeting_times": "1st Tue, 10:00 am",
    "address": "1204 Piedmont Ave",
    "address2": "",
    "city": "Rockmart",
    "state": "GA",
    "zip": "30153",
    "lat": 34.0103058,
    "lng": -85.0438434,
    "charter_date": "10/29/1924"
  },
  {
    "id": 437,
    "name": "Tiftarea",
    "lodge_num": 745,
    "lodge_phone": "",
    "meeting_times": "2nd Sat, 9:00 am",
    "address": "1480 Kennedy Rd",
    "address2": "",
    "city": "Tifton",
    "state": "GA",
    "zip": "31794",
    "lat": 31.466386,
    "lng": -83.492427,
    "charter_date": "10/28/1908"
  },
  {
    "id": 436,
    "name": "Gwinnett DL",
    "lodge_num": 744,
    "lodge_phone": "6782969718",
    "meeting_times": "1st Wed, 10:00 am",
    "address": "465 Perry St",
    "address2": "",
    "city": "Lawrenceville",
    "state": "GA",
    "zip": "30046",
    "lat": 33.9562149,
    "lng": -83.9879625,
    "charter_date": "10/28/1908"
  },
  {
    "id": 435,
    "name": "Metro DL",
    "lodge_num": 743,
    "lodge_phone": "",
    "meeting_times": "1st Tues, 10:30 am, Except on Holidays 2nd Tue",
    "address": "5556 Peachtree Industrial Blvd.",
    "address2": "",
    "city": "Chamblee",
    "state": "GA",
    "zip": "30071",
    "lat": 33.9006169,
    "lng": -84.301339,
    "charter_date": "10/28/1908"
  },
  {
    "id": 434,
    "name": "James E. Sledge DL",
    "lodge_num": 742,
    "lodge_phone": "",
    "meeting_times": "2nd Wed, 11:00 am",
    "address": "1362 Sandtown Rd",
    "address2": "",
    "city": "Marietta",
    "state": "GA",
    "zip": "30008",
    "lat": 33.9198033,
    "lng": -84.5562885,
    "charter_date": "10/28/1908"
  },
  {
    "id": 433,
    "name": "Monument",
    "lodge_num": 741,
    "lodge_phone": "",
    "meeting_times": "1st Thu, 10:00 am",
    "address": "941 18th Ave",
    "address2": "",
    "city": "Albany",
    "state": "GA",
    "zip": "31701",
    "lat": 31.612031,
    "lng": -84.174784,
    "charter_date": "10/28/1908"
  },
  {
    "id": 432,
    "name": "Hoboken",
    "lodge_num": 740,
    "lodge_phone": "",
    "meeting_times": "2nd & 4th Mon, 7:30 pm, 2nd Mon only Dec",
    "address": "3972 Main St West",
    "address2": "",
    "city": "Hoboken",
    "state": "GA",
    "zip": "31542",
    "lat": 31.1812734,
    "lng": -82.1283251,
    "charter_date": "10/28/1908"
  },
  {
    "id": 430,
    "name": "Emerson",
    "lodge_num": 738,
    "lodge_phone": "",
    "meeting_times": "1st & 3rd Mon, 7:30 pm, 1st Mon in Dec",
    "address": "680 Hwy 293",
    "address2": "",
    "city": "Emerson",
    "state": "GA",
    "zip": "30137",
    "lat": 34.1253154,
    "lng": -84.7556845,
    "charter_date": "10/28/1908"
  },
  {
    "id": 428,
    "name": "McIntosh",
    "lodge_num": 735,
    "lodge_phone": "",
    "meeting_times": "2nd & 4th Mon, 7:30 pm, 2nd Mon only Dec",
    "address": "50 E. Washington St",
    "address2": "",
    "city": "Newnan",
    "state": "GA",
    "zip": "30263",
    "lat": 33.3748482,
    "lng": -84.7959006,
    "charter_date": "10/30/1907"
  },
  {
    "id": 427,
    "name": "Morrow",
    "lodge_num": 734,
    "lodge_phone": "",
    "meeting_times": "1st & 3rd Mon, 7:30 pm, 1st Mon only Dec",
    "address": "1328",
    "address2": "",
    "city": "Morrow",
    "state": "GA",
    "zip": "30260",
    "lat": 33.5836755,
    "lng": -84.3467938,
    "charter_date": "10/30/1907"
  },
  {
    "id": 426,
    "name": "Sugar Valley",
    "lodge_num": 733,
    "lodge_phone": "",
    "meeting_times": "2nd & 4th Tue, 7:30 pm, 2nd Tue only Dec",
    "address": "1394 Artesian Well Rd",
    "address2": "",
    "city": "Sugar Valley",
    "state": "GA",
    "zip": "30701",
    "lat": 34.5304068,
    "lng": -85.0384254,
    "charter_date": "10/30/1907"
  },
  {
    "id": 424,
    "name": "Amity",
    "lodge_num": 731,
    "lodge_phone": "",
    "meeting_times": "2nd & 4th Tue, 7:30 pm, 2 Tues only in Dec.",
    "address": "18 Barnett Shoals Rd",
    "address2": "",
    "city": "Watkinsville",
    "state": "GA",
    "zip": "30605",
    "lat": 33.860756,
    "lng": -83.405695,
    "charter_date": "10/30/1907"
  },
  {
    "id": 423,
    "name": "Grovetown",
    "lodge_num": 730,
    "lodge_phone": "",
    "meeting_times": "2nd Thu, 8:00 pm",
    "address": "211 Newmantown Rd",
    "address2": "",
    "city": "Grovetown",
    "state": "GA",
    "zip": "30813",
    "lat": 33.446253,
    "lng": -82.200303,
    "charter_date": "10/30/1907"
  },
  {
    "id": 422,
    "name": "Mountain Park",
    "lodge_num": 729,
    "lodge_phone": "678.557.3577",
    "meeting_times": "1st & 3rd Thu, 7:30 pm, 1st Thu Dec, 3rd Thu Jul",
    "address": "1294 Rockbridge Rd",
    "address2": "",
    "city": "Stone Mountain",
    "state": "GA",
    "zip": "30087",
    "lat": 33.8398222,
    "lng": -84.1302959,
    "charter_date": "10/30/1907"
  },
  {
    "id": 421,
    "name": "East Floyd",
    "lodge_num": 728,
    "lodge_phone": "",
    "meeting_times": "1st & 3rd Mondays, 7:30 p.m. 1st Mon in Dec",
    "address": "3390 Hwy 293",
    "address2": "",
    "city": "Rome",
    "state": "GA",
    "zip": "30161",
    "lat": 34.2522465,
    "lng": -85.0563067,
    "charter_date": "10/30/1907"
  },
  {
    "id": 418,
    "name": "Resaca",
    "lodge_num": 724,
    "lodge_phone": "",
    "meeting_times": "2nd Thu, 10:00am",
    "address": "3044 Battlefield Parkway NW",
    "address2": "",
    "city": "Resaca",
    "state": "GA",
    "zip": "30735",
    "lat": 34.5805696,
    "lng": -84.9436722,
    "charter_date": "11/10/1932"
  },
  {
    "id": 417,
    "name": "Roger Lacey",
    "lodge_num": 722,
    "lodge_phone": "",
    "meeting_times": "2nd & 4th Mon, 7:30 pm, 2nd Mon only Jul & Dec, 4th Mon only in Aug",
    "address": "2001 E. DeRenne Ave",
    "address2": "",
    "city": "Savannah",
    "state": "GA",
    "zip": "31406",
    "lat": 32.0198449,
    "lng": -81.078479,
    "charter_date": "10/31/1907"
  },
  {
    "id": 416,
    "name": "Samuel S. Lawrence",
    "lodge_num": 721,
    "lodge_phone": "770-436-8125",
    "meeting_times": "2nd Tues, 7:30 pm",
    "address": "1362 Sandtown Rd",
    "address2": "",
    "city": "Marietta",
    "state": "GA",
    "zip": "30008",
    "lat": 33.9198033,
    "lng": -84.5562885,
    "charter_date": "10/30/1907"
  },
  {
    "id": 323,
    "name": "Mickey Fuller",
    "lodge_num": 720,
    "lodge_phone": "",
    "meeting_times": "2nd & 4th Thu, 7:30 pm, No meeting on Maundy Thu, 2nd Thu Nov & Dec.",
    "address": "106 Gralan Dr",
    "address2": "",
    "city": "Byron",
    "state": "GA",
    "zip": "31008",
    "lat": 32.6492909,
    "lng": -83.7562979,
    "charter_date": "10/30/1907"
  },
  {
    "id": 415,
    "name": "Moody",
    "lodge_num": 719,
    "lodge_phone": "",
    "meeting_times": "2nd Thu, 7:30 pm",
    "address": "5683 Bemiss Rd",
    "address2": "",
    "city": "Valdosta",
    "state": "GA",
    "zip": "31605",
    "lat": 30.9643017,
    "lng": -83.2197699,
    "charter_date": "10/30/1907"
  },
  {
    "id": 414,
    "name": "Fleming",
    "lodge_num": 718,
    "lodge_phone": "706-798-4941",
    "meeting_times": "3rd Mon, 7:30 pm",
    "address": "2008 Lumpkin Rd",
    "address2": "",
    "city": "Augusta",
    "state": "GA",
    "zip": "30906",
    "lat": 33.4180226,
    "lng": -82.0169588,
    "charter_date": "10/27/1920"
  },
  {
    "id": 413,
    "name": "Brunswick",
    "lodge_num": 717,
    "lodge_phone": "912-222-0020",
    "meeting_times": "1st & 3rd Thu, 8:00 pm, 1st Thu only in Dec",
    "address": "1128 Glynn Park Dr",
    "address2": "",
    "city": "Brunswick",
    "state": "GA",
    "zip": "31525",
    "lat": 31.2287291,
    "lng": -81.5182151,
    "charter_date": "10/30/1907"
  },
  {
    "id": 412,
    "name": "Azalea",
    "lodge_num": 716,
    "lodge_phone": "",
    "meeting_times": "1st & 3rd Tue, 7:30 pm, 1st Tue only Dec",
    "address": "1002 N. Williams St",
    "address2": "",
    "city": "Valdosta",
    "state": "GA",
    "zip": "31601",
    "lat": 30.8421,
    "lng": -83.2812,
    "charter_date": "11/00/1906"
  },
  {
    "id": 411,
    "name": "Stone",
    "lodge_num": 715,
    "lodge_phone": "",
    "meeting_times": "2nd & 4th Mon, 7:30 pm, 2nd Mon only Dec",
    "address": "2504 Dana Dr",
    "address2": "",
    "city": "New Holland",
    "state": "GA",
    "zip": "30507",
    "lat": 34.311875,
    "lng": -83.773274,
    "charter_date": "11/00/1906"
  },
  {
    "id": 408,
    "name": "Fayetteville",
    "lodge_num": 711,
    "lodge_phone": "404-213-3215 ",
    "meeting_times": "2nd & 4th Mon, 7:30 pm, 2nd Mon only Dec",
    "address": "200 W. Lanier Ave",
    "address2": "",
    "city": "Fayetteville",
    "state": "GA",
    "zip": "30214",
    "lat": 33.4486311,
    "lng": -84.4590564,
    "charter_date": "11/00/1906"
  },
  {
    "id": 407,
    "name": "Martinez",
    "lodge_num": 710,
    "lodge_phone": "",
    "meeting_times": "1st Mon 8:00 pm",
    "address": "3730 Wheeler Road",
    "address2": "",
    "city": "Augusta",
    "state": "GA",
    "zip": "30909-6522",
    "lat": 33.515968,
    "lng": -82.072286,
    "charter_date": "11/00/1906"
  },
  {
    "id": 406,
    "name": "Riverdale",
    "lodge_num": 709,
    "lodge_phone": "",
    "meeting_times": "2nd & 4th Thu, 7:30 pm, 2nd Thu only Nov & Dec",
    "address": "6589 Georgia 85",
    "address2": "",
    "city": "Riverdale",
    "state": "GA",
    "zip": "30274",
    "lat": 33.5747805,
    "lng": -84.4127625,
    "charter_date": "10/29/1919"
  },
  {
    "id": 405,
    "name": "Triangle",
    "lodge_num": 708,
    "lodge_phone": "",
    "meeting_times": "1st & 3rd Thu, 7:30 pm, 1st Thu only in Dec.",
    "address": "941 18th Ave",
    "address2": "",
    "city": "Albany",
    "state": "GA",
    "zip": "31701",
    "lat": 31.612031,
    "lng": -84.174784,
    "charter_date": "11/00/1906"
  },
  {
    "id": 402,
    "name": "Chattooga",
    "lodge_num": 704,
    "lodge_phone": "",
    "meeting_times": "1st Mon, 7:30 pm",
    "address": "2 Milligan St",
    "address2": "",
    "city": "Summerville",
    "state": "GA",
    "zip": "30747",
    "lat": 34.480642,
    "lng": -85.3477343,
    "charter_date": "11/00/1906"
  },
  {
    "id": 401,
    "name": "Walnut Grove",
    "lodge_num": 703,
    "lodge_phone": "678-661-1515",
    "meeting_times": "2nd and 4th Thursday, 6:30PM Meal, 7:30PM Meeting",
    "address": "1211 Industrial Pkwy",
    "address2": "",
    "city": "Loganville",
    "state": "GA",
    "zip": "30052",
    "lat": 33.75371,
    "lng": -83.86498,
    "charter_date": "11/00/1906"
  },
  {
    "id": 400,
    "name": "Pleasant Grove",
    "lodge_num": 702,
    "lodge_phone": "",
    "meeting_times": "2nd & 4th Thu, 7:30 pm, 2nd Thu only Nov & Dec",
    "address": "219 Allison St",
    "address2": "",
    "city": "Dalton",
    "state": "GA",
    "zip": "30721",
    "lat": 34.8326721,
    "lng": -84.9459267,
    "charter_date": "11/00/1906"
  },
  {
    "id": 399,
    "name": "Chehaw",
    "lodge_num": 701,
    "lodge_phone": "229-869-9345",
    "meeting_times": "2nd & 4th Thu, 7:30 pm, 2nd Thu only in Nov & Dec",
    "address": "240 Walnut Ave South",
    "address2": "",
    "city": "Leesburg",
    "state": "GA",
    "zip": "31763",
    "lat": 31.7263416,
    "lng": -84.1721846,
    "charter_date": "11/00/1894"
  },
  {
    "id": 398,
    "name": "George Walton",
    "lodge_num": 699,
    "lodge_phone": "",
    "meeting_times": "2nd Thu, 8:00 pm",
    "address": "3006 Damascus Rd",
    "address2": "",
    "city": "Augusta",
    "state": "GA",
    "zip": "30909",
    "lat": 33.457485,
    "lng": -82.044552,
    "charter_date": "11/00/1905"
  },
  {
    "id": 397,
    "name": "Beulah",
    "lodge_num": 698,
    "lodge_phone": "",
    "meeting_times": "2nd & 4 Tue, 7:30 pm, 2nd Tue only Dec",
    "address": "80 Masonic Dr",
    "address2": "",
    "city": "Rockmart",
    "state": "GA",
    "zip": "30153",
    "lat": 33.8792408,
    "lng": -85.0049923,
    "charter_date": "11/00/1905"
  },
  {
    "id": 395,
    "name": "Matt",
    "lodge_num": 694,
    "lodge_phone": "",
    "meeting_times": "2nd & 4th Mon, 7:30 pm, 2nd Mon only Dec",
    "address": "5445 Matt Hwy",
    "address2": "",
    "city": "Cumming",
    "state": "GA",
    "zip": "30040",
    "lat": 34.2986678,
    "lng": -84.1536689,
    "charter_date": "11/00/1905"
  },
  {
    "id": 394,
    "name": "Thunderbolt",
    "lodge_num": 693,
    "lodge_phone": "912-484-2656",
    "meeting_times": "2nd & 4th Tue, 7:30 pm, 2nd Tue only Oct & Dec (dinner @ 6:30)",
    "address": "3111 Rowland Ave",
    "address2": "",
    "city": "Thunderbolt",
    "state": "GA",
    "zip": "31404",
    "lat": 32.0342008,
    "lng": -81.0549812,
    "charter_date": "11/00/1905"
  },
  {
    "id": 392,
    "name": "Stockbridge",
    "lodge_num": 691,
    "lodge_phone": "6783003610",
    "meeting_times": "2nd & 4th Tue, 7:30 pm, 2nd Tue only Oct & Dec",
    "address": "140 M.L. King Sr Heritage Trail",
    "address2": "",
    "city": "Stockbridge",
    "state": "GA",
    "zip": "30281",
    "lat": 33.545972,
    "lng": -84.233731,
    "charter_date": "10/27/1865"
  },
  {
    "id": 391,
    "name": "Nancy Hart",
    "lodge_num": 690,
    "lodge_phone": "706-376-0690",
    "meeting_times": "3rd Thu, 7:30 pm",
    "address": "373 Benson St",
    "address2": "",
    "city": "Hartwell",
    "state": "GA",
    "zip": "30643",
    "lat": 34.3475174,
    "lng": -82.9276646,
    "charter_date": "10/27/1904"
  },
  {
    "id": 390,
    "name": "Crawford",
    "lodge_num": 689,
    "lodge_phone": "478-973-1505",
    "meeting_times": "2nd Tue, 8:00 pm",
    "address": "105 Lowe Rd",
    "address2": "",
    "city": "Roberta",
    "state": "GA",
    "zip": "31078",
    "lat": 32.7273623,
    "lng": -84.0063868,
    "charter_date": "10/27/1904"
  },
  {
    "id": 389,
    "name": "Loftin",
    "lodge_num": 688,
    "lodge_phone": "706-675-6572",
    "meeting_times": "3rd Tue, 7:30 pm",
    "address": "24256 Hwy 100           At intersection of Robinson St & Hwy 100",
    "address2": "",
    "city": "Ephesus",
    "state": "GA",
    "zip": "30170",
    "lat": 33.4037399,
    "lng": -85.2536616,
    "charter_date": "10/27/1904"
  },
  {
    "id": 387,
    "name": "Kansas",
    "lodge_num": 683,
    "lodge_phone": "678.787.2778",
    "meeting_times": "2nd & 4th Thu, 7:00 pm, 2nd Thu only Nov & Dec",
    "address": "3338 Lovvorn Mill Rd",
    "address2": "",
    "city": "Waco",
    "state": "GA",
    "zip": "30182",
    "lat": 32.1656221,
    "lng": -82.9000751,
    "charter_date": "10/29/1903"
  },
  {
    "id": 386,
    "name": "Sharptop",
    "lodge_num": 680,
    "lodge_phone": "7707352297",
    "meeting_times": "1st & 3rd Wed, 7:30 pm, 1st Wed only inJun, Jul & Dec",
    "address": "14289 Fincher Rd",
    "address2": "",
    "city": "Canton",
    "state": "GA",
    "zip": "30114",
    "lat": 32.1656221,
    "lng": -82.9000751,
    "charter_date": "10/29/1903"
  },
  {
    "id": 385,
    "name": "E. W. Hightower",
    "lodge_num": 679,
    "lodge_phone": "770-757-0689",
    "meeting_times": "2nd & 4th Wed, 7:30 pm, 2nd Wed only in Nov & Dec",
    "address": "111 Dogwood Dr",
    "address2": "",
    "city": "Nelson",
    "state": "GA",
    "zip": "30151",
    "lat": 34.3811968,
    "lng": -84.3708738,
    "charter_date": "10/29/1903"
  },
  {
    "id": 384,
    "name": "John S. Davidson",
    "lodge_num": 677,
    "lodge_phone": "",
    "meeting_times": "2nd Thu, 8:00 pm",
    "address": "3201 Wrightsboro Rd",
    "address2": "",
    "city": "Augusta",
    "state": "GA",
    "zip": "30909",
    "lat": 33.4698312,
    "lng": -82.0610128,
    "charter_date": "11/00/1916"
  },
  {
    "id": 382,
    "name": "Tyus",
    "lodge_num": 671,
    "lodge_phone": "",
    "meeting_times": "2nd & 4th Thu, 7:30 pm, 2nd Thu only Nov & Dec",
    "address": "4564",
    "address2": "",
    "city": "Tyus",
    "state": "GA",
    "zip": "30108",
    "lat": 33.5270177,
    "lng": -85.252944,
    "charter_date": "10/31/1901"
  },
  {
    "id": 381,
    "name": "Chatsworth",
    "lodge_num": 664,
    "lodge_phone": "",
    "meeting_times": "1st & 3rd Tue, 7:30 pm, 3rd Tue July 1st Tue only Dec",
    "address": "211 3rd Avenie",
    "address2": "",
    "city": "Chatsworth",
    "state": "GA",
    "zip": "30705",
    "lat": 34.7644254,
    "lng": -84.7700456,
    "charter_date": "11/00/1899"
  },
  {
    "id": 380,
    "name": "Lizella",
    "lodge_num": 663,
    "lodge_phone": "",
    "meeting_times": "2nd & 4th Fri, 7:30 pm, 2nd Fri only Nov & Dec",
    "address": "8008 Columbus Rd",
    "address2": "",
    "city": "Lizella",
    "state": "GA",
    "zip": "31052",
    "lat": 32.8063505,
    "lng": -83.8170032,
    "charter_date": "11/00/1899"
  },
  {
    "id": 378,
    "name": "Grove",
    "lodge_num": 652,
    "lodge_phone": "",
    "meeting_times": "4th Sat, 7:30 pm, 2nd Sat in Dec",
    "address": "16740 Hwy 106",
    "address2": "",
    "city": "Red Hill",
    "state": "GA",
    "zip": "27030",
    "lat": 36.491337,
    "lng": -80.6873882,
    "charter_date": "10/30/1895"
  },
  {
    "id": 377,
    "name": "Tyrone",
    "lodge_num": 644,
    "lodge_phone": "",
    "meeting_times": "2nd & 4th Tue, 7:30 pm, 2nd Tue only Dec",
    "address": "835 Senoia Rd",
    "address2": "",
    "city": "Tyrone",
    "state": "GA",
    "zip": "30290",
    "lat": 33.4718825,
    "lng": -84.5972788,
    "charter_date": "11/00/1922"
  },
  {
    "id": 374,
    "name": "Buck Creek",
    "lodge_num": 639,
    "lodge_phone": "770-834-4821",
    "meeting_times": "1st & 3rd Mon, 7:30 pm",
    "address": "1250 Spence Road,",
    "address2": "",
    "city": "Carrollton",
    "state": "GA",
    "zip": "30117",
    "lat": 33.6577928,
    "lng": -85.0858663,
    "charter_date": "10/27/1898"
  },
  {
    "id": 372,
    "name": "Statham",
    "lodge_num": 634,
    "lodge_phone": "706-372-7773",
    "meeting_times": "4th Thu, Jan-Oct -  3rd Thu, Nov & Dec, 7:30 pm",
    "address": "939 Bethlehem Road",
    "address2": "",
    "city": "Winder",
    "state": "GA",
    "zip": "30680",
    "lat": 33.9642678,
    "lng": -83.5971845,
    "charter_date": "10/27/1892"
  },
  {
    "id": 371,
    "name": "Coosa",
    "lodge_num": 622,
    "lodge_phone": "",
    "meeting_times": "2nd & 4th Mon, 7:30 pm, 2nd Mon only Dec",
    "address": "5097 Alabama Hwy",
    "address2": "",
    "city": "Rome",
    "state": "GA",
    "zip": "30165",
    "lat": 34.270493,
    "lng": -85.2541442,
    "charter_date": "10/29/1891"
  },
  {
    "id": 367,
    "name": "Young Cane",
    "lodge_num": 597,
    "lodge_phone": "",
    "meeting_times": "4th Sat, 7:30 pm, 3rd Sat in Dec",
    "address": "10 Young Cane Rd",
    "address2": "",
    "city": "Blairsville",
    "state": "GA",
    "zip": "30512",
    "lat": 34.8818711,
    "lng": -84.0732419,
    "charter_date": "10/29/1874"
  },
  {
    "id": 366,
    "name": "Bowersville",
    "lodge_num": 595,
    "lodge_phone": "",
    "meeting_times": "1st Thu, 7:30 pm",
    "address": "7968 Georgia Hwy 17",
    "address2": "",
    "city": "Bowersville",
    "state": "GA",
    "zip": "30553",
    "lat": 34.4225902,
    "lng": -83.1029627,
    "charter_date": "10/30/1873"
  },
  {
    "id": 365,
    "name": "Dougherty",
    "lodge_num": 591,
    "lodge_phone": "",
    "meeting_times": "1st & 3rd Tue, 7:30 pm, 1st Tue only in Dec",
    "address": "1900 Palmyra Rd",
    "address2": "",
    "city": "Albany",
    "state": "GA",
    "zip": "31701",
    "lat": 31.603147,
    "lng": -84.167692,
    "charter_date": "10/30/1873"
  },
  {
    "id": 364,
    "name": "Hapeville",
    "lodge_num": 590,
    "lodge_phone": "",
    "meeting_times": "2nd & 4th Mon, 7:30 pm, 2nd Mon only Dec",
    "address": "613 N. Central Ave",
    "address2": "",
    "city": "Hapeville",
    "state": "GA",
    "zip": "30354",
    "lat": 33.6591016,
    "lng": -84.4090504,
    "charter_date": "10/30/1873"
  },
  {
    "id": 363,
    "name": "Stephens",
    "lodge_num": 586,
    "lodge_phone": "",
    "meeting_times": "2nd & 4th Mon, 7:30pm, 2nd Mon only Dec",
    "address": "127 East Second St",
    "address2": "",
    "city": "Manchester",
    "state": "GA",
    "zip": "31816",
    "lat": 32.8507363,
    "lng": -84.6141718,
    "charter_date": "11/00/1871"
  },
  {
    "id": 361,
    "name": "Fort Benning",
    "lodge_num": 579,
    "lodge_phone": "",
    "meeting_times": "2nd & 4th Mon, 7:30 pm, 2nd Mon only Dec",
    "address": "2304 Fort Benning Rd",
    "address2": "",
    "city": "Columbus",
    "state": "GA",
    "zip": "31903",
    "lat": 32.4113424,
    "lng": -84.9446167,
    "charter_date": "11/00/1866"
  },
  {
    "id": 360,
    "name": "Bay Branch",
    "lodge_num": 575,
    "lodge_phone": "",
    "meeting_times": "Fri after 1st Sunday of each month, Oct-Mar 7:30, Apr-Sep 8:00",
    "address": "112 Bay Branch Rd",
    "address2": "",
    "city": "Sylvania",
    "state": "GA",
    "zip": "30467",
    "lat": 32.7401183,
    "lng": -81.7644789,
    "charter_date": "10/30/1890"
  },
  {
    "id": 359,
    "name": "Ducktown",
    "lodge_num": 572,
    "lodge_phone": "770-380-4006",
    "meeting_times": "1st & 3rd Fri 7:30 pm, 1st Fri only June and Dec",
    "address": "4655 Canton Hwy ",
    "address2": "",
    "city": "Cumming",
    "state": "GA",
    "zip": "30040",
    "lat": 34.237151,
    "lng": -84.256616,
    "charter_date": "11/00/1860"
  },
  {
    "id": 358,
    "name": "Campton",
    "lodge_num": 566,
    "lodge_phone": "",
    "meeting_times": "1st & 3rd Mon, 7:30 pm, 3rd Mon in Sept.",
    "address": "2721 North BRd St",
    "address2": "",
    "city": "Campton",
    "state": "GA",
    "zip": "30656",
    "lat": 33.8717791,
    "lng": -83.7201728,
    "charter_date": "10/28/1858"
  },
  {
    "id": 357,
    "name": "Hebron",
    "lodge_num": 564,
    "lodge_phone": "",
    "meeting_times": "2nd & 4th Tue, 7:30 pm, 2nd Tue only Dec",
    "address": "23902 Hwy 59 South",
    "address2": "",
    "city": "Carnesville",
    "state": "GA",
    "zip": "30521",
    "lat": 34.329723,
    "lng": -83.3477508,
    "charter_date": "10/30/1857"
  },
  {
    "id": 356,
    "name": "Pace",
    "lodge_num": 558,
    "lodge_phone": "770-362-2159",
    "meeting_times": "1st & 3rd Tue, 7:30 pm, 1st Tue only in Dec",
    "address": "3305 Hwy 81 South",
    "address2": "",
    "city": "Covington",
    "state": "GA",
    "zip": "30016",
    "lat": 33.5460352,
    "lng": -83.9457181,
    "charter_date": "11/00/1854"
  },
  {
    "id": 355,
    "name": "Grayson",
    "lodge_num": 549,
    "lodge_phone": "678-873-3491",
    "meeting_times": "2nd & 4th Mon, 7:30 pm, 2nd Mon in Dec",
    "address": "P O Box 111",
    "address2": "",
    "city": "Grayson",
    "state": "GA",
    "zip": "30017",
    "lat": 33.8526952,
    "lng": -83.9277544,
    "charter_date": "10/30/1852"
  },
  {
    "id": 354,
    "name": "Elm City",
    "lodge_num": 544,
    "lodge_phone": "",
    "meeting_times": "2nd & 4th Thu, 7:30 pm, 2nd Thu only Nov & Dec",
    "address": "619 Wilburn Ave",
    "address2": "",
    "city": "Lagrange",
    "state": "GA",
    "zip": "30240",
    "lat": 33.0275907,
    "lng": -85.0541611,
    "charter_date": "10/31/1889"
  },
  {
    "id": 353,
    "name": "Panthersville",
    "lodge_num": 543,
    "lodge_phone": "",
    "meeting_times": "1st & 3rd Tue, 7:30 pm, 1st Tue only in Dec",
    "address": "3605 Union Church Rd",
    "address2": "",
    "city": "Stockbridge",
    "state": "GA",
    "zip": "30281",
    "lat": 33.5941167,
    "lng": -84.1378201,
    "charter_date": "10/31/1851"
  },
  {
    "id": 352,
    "name": "Sweet Gum",
    "lodge_num": 542,
    "lodge_phone": "",
    "meeting_times": "1st & 3rd Mon, 7:30 pm, 1st Mon only in Dec",
    "address": "6515 Murphy Hwy",
    "address2": "",
    "city": "Mineral Bluff",
    "state": "GA",
    "zip": "30559",
    "lat": 34.9728967,
    "lng": -84.0639207,
    "charter_date": "10/29/1874"
  },
  {
    "id": 351,
    "name": "John W. Akin",
    "lodge_num": 537,
    "lodge_phone": "",
    "meeting_times": "2nd & 4th Thu, 7:30 pm, 2nd Thu only Nov & Dec",
    "address": "65 Madden St Toylorsville",
    "address2": "",
    "city": "Taylorsville",
    "state": "GA",
    "zip": "",
    "lat": 34.0862094,
    "lng": -84.9874449,
    "charter_date": "10/00/1889"
  },
  {
    "id": 350,
    "name": "Helena",
    "lodge_num": 536,
    "lodge_phone": "",
    "meeting_times": "2nd & 4th Tue, 7:30 pm, 2nd Tue Dec",
    "address": "50 NW RailRd St",
    "address2": "",
    "city": "Helena",
    "state": "GA",
    "zip": "31037",
    "lat": 32.0723235,
    "lng": -82.9098258,
    "charter_date": "10/30/1851"
  },
  {
    "id": 349,
    "name": "Blaine",
    "lodge_num": 534,
    "lodge_phone": "",
    "meeting_times": "1st & 3rd Thu, 7:30 pm, 1st Thu only in Dec.",
    "address": "1164 Hwy 136 West",
    "address2": "",
    "city": "Blaine",
    "state": "GA",
    "zip": "30175",
    "lat": 34.5173379,
    "lng": -84.463135,
    "charter_date": "10/29/1851"
  },
  {
    "id": 348,
    "name": "Red Hill",
    "lodge_num": 533,
    "lodge_phone": "",
    "meeting_times": "1st & 3rd Mon, 1st Mon only in Dec 7:30 pm",
    "address": "2724 S. Hwy 19",
    "address2": "",
    "city": "Dublin",
    "state": "GA",
    "zip": "31021",
    "lat": 32.5505124,
    "lng": -83.0031408,
    "charter_date": "05/00/1935"
  },
  {
    "id": 347,
    "name": "Battle Hill",
    "lodge_num": 523,
    "lodge_phone": "7703784466",
    "meeting_times": "1st & 3rd Tue, 7:30 pm, 1st Tue only Dec",
    "address": "3649 Temple St",
    "address2": "",
    "city": "Lithia Springs",
    "state": "GA",
    "zip": "30122",
    "lat": 33.7945775,
    "lng": -84.660688,
    "charter_date": "10/30/1850"
  },
  {
    "id": 346,
    "name": "Zingara",
    "lodge_num": 519,
    "lodge_phone": "",
    "meeting_times": "2nd & 4th Thu, 7:30 pm, Tues before Thanksgiving, 2nd Thu only Dec",
    "address": "3885 Zingara Rd, NE",
    "address2": "",
    "city": "Conyers",
    "state": "GA",
    "zip": "30012",
    "lat": 33.7475355,
    "lng": -83.9750955,
    "charter_date": "11/00/1880"
  },
  {
    "id": 345,
    "name": "Davitte",
    "lodge_num": 513,
    "lodge_phone": "",
    "meeting_times": "2nd & 4th Mon, 7:30 pm, 2nd Mon only Dec",
    "address": "2 Second St",
    "address2": "",
    "city": "Aragon",
    "state": "GA",
    "zip": "30104",
    "lat": 34.0466342,
    "lng": -85.0550017,
    "charter_date": "10/31/1849"
  },
  {
    "id": 344,
    "name": "Clermont",
    "lodge_num": 512,
    "lodge_phone": "770-297-2755",
    "meeting_times": "1st & 3rd Thu, 7:30 pm, 1st Thu only Dec",
    "address": "400 Main St",
    "address2": "",
    "city": "Clermont",
    "state": "GA",
    "zip": "30527",
    "lat": 34.477809,
    "lng": -83.773876,
    "charter_date": "10/29/1874"
  },
  {
    "id": 343,
    "name": "Chappell",
    "lodge_num": 511,
    "lodge_phone": "",
    "meeting_times": "2nd & 4th Mon, 7:30 pm, 2nd Mon only May & Dec",
    "address": "608 Sibley Ave",
    "address2": "",
    "city": "Union Point",
    "state": "GA",
    "zip": "30669",
    "lat": 33.614676,
    "lng": -83.074817,
    "charter_date": "10/30/1885"
  },
  {
    "id": 342,
    "name": "Eton",
    "lodge_num": 509,
    "lodge_phone": "",
    "meeting_times": "2nd & 4th Mon, 7:30 pm, 2nd Mon only Dec",
    "address": "88 Hall St",
    "address2": "",
    "city": "Eton",
    "state": "GA",
    "zip": "30705",
    "lat": 34.8236879,
    "lng": -84.7607617,
    "charter_date": "11/00/1893"
  },
  {
    "id": 340,
    "name": "Newington",
    "lodge_num": 503,
    "lodge_phone": "",
    "meeting_times": "2nd Mon, 7:30 pm",
    "address": "203 Church St",
    "address2": "",
    "city": "Newington",
    "state": "GA",
    "zip": "30446",
    "lat": 32.5932249,
    "lng": -81.4864931,
    "charter_date": "10/27/1910"
  },
  {
    "id": 337,
    "name": "Inman Creek",
    "lodge_num": 491,
    "lodge_phone": "",
    "meeting_times": "1st & 3rd Thu, 7:00 pm, 3rd Thu Jul, 1st Thu Dec",
    "address": "162 Marvin Church Rd",
    "address2": "",
    "city": "Lyons",
    "state": "GA",
    "zip": "30436",
    "lat": 32.0649182,
    "lng": -82.3009942,
    "charter_date": "10/31/1889"
  },
  {
    "id": 336,
    "name": "Mansfield",
    "lodge_num": 489,
    "lodge_phone": "",
    "meeting_times": "1st & 3rd Thu, 7:30 pm, 1st Thu only Dec",
    "address": "119 South Pine Circle",
    "address2": "",
    "city": "Mansfield",
    "state": "GA",
    "zip": "30055",
    "lat": 33.5144278,
    "lng": -83.731914,
    "charter_date": "11/00/1880"
  },
  {
    "id": 334,
    "name": "Palestine",
    "lodge_num": 486,
    "lodge_phone": "706-273-4799",
    "meeting_times": "2nd & 4th Thu, 7:00 pm, 2nd Thu only in Nov & Dec.",
    "address": "1690 Peachtree St NW",
    "address2": "",
    "city": "Atlanta",
    "state": "GA",
    "zip": "30309",
    "lat": 33.7998147,
    "lng": -84.3930596,
    "charter_date": "11/00/1840"
  },
  {
    "id": 332,
    "name": "Rose Hill",
    "lodge_num": 484,
    "lodge_phone": "",
    "meeting_times": "2nd & 4th Tue, 7:30 pm, 2nd Tue Oct & Dec",
    "address": "915 31st St",
    "address2": "",
    "city": "Columbus",
    "state": "GA",
    "zip": "31904",
    "lat": 32.49279,
    "lng": -84.979788,
    "charter_date": "01/00/1900"
  },
  {
    "id": 331,
    "name": "Mineral Bluff",
    "lodge_num": 483,
    "lodge_phone": "",
    "meeting_times": "1st & 3rd Thursday, 7:30 pm, 1st Thur Only Dec",
    "address": "8590 Lakewood Hwy",
    "address2": "",
    "city": "Mineral Bluff",
    "state": "GA",
    "zip": "30559",
    "lat": 34.8901359,
    "lng": -84.2610513,
    "charter_date": "01/00/1900"
  },
  {
    "id": 330,
    "name": "Duluth",
    "lodge_num": 480,
    "lodge_phone": "",
    "meeting_times": "1st & 3rd Tue, 7:30 pm, 1st Tue only Dec, 3rd Tue Jul",
    "address": "3337 Duluth Hwy",
    "address2": "",
    "city": "Duluth",
    "state": "GA",
    "zip": "30096",
    "lat": 33.998581,
    "lng": -84.140045,
    "charter_date": "01/00/1900"
  },
  {
    "id": 329,
    "name": "Glenwood",
    "lodge_num": 479,
    "lodge_phone": "",
    "meeting_times": "2nd Thu, 7:00 pm",
    "address": "34 North 5th St",
    "address2": "",
    "city": "Glenwood",
    "state": "GA",
    "zip": "30428",
    "lat": 32.1926198,
    "lng": -82.7063066,
    "charter_date": "01/00/1900"
  },
  {
    "id": 328,
    "name": "Camden",
    "lodge_num": 476,
    "lodge_phone": "",
    "meeting_times": "2nd & 4th Thu, 7:30 pm, 2nd Thu only Nov & Dec",
    "address": "915 East King St",
    "address2": "",
    "city": "Kingsland",
    "state": "GA",
    "zip": "31548",
    "lat": 30.7963797,
    "lng": -81.6724974,
    "charter_date": "01/00/1900"
  },
  {
    "id": 326,
    "name": "Pembroke",
    "lodge_num": 469,
    "lodge_phone": "912.601.2397",
    "meeting_times": "2nd & 4th Tue, 8:00 pm, 2nd Tue only Dec",
    "address": "45 McFadden St",
    "address2": "",
    "city": "Pembroke",
    "state": "GA",
    "zip": "31321",
    "lat": 32.1318564,
    "lng": -81.6278446,
    "charter_date": "01/00/1900"
  },
  {
    "id": 325,
    "name": "Wellington",
    "lodge_num": 467,
    "lodge_phone": "",
    "meeting_times": "4th Wed, 8:00 pm, 2nd Wed in Dec",
    "address": "6052 Bishop Rd.",
    "address2": "",
    "city": "Bostwick",
    "state": "GA",
    "zip": "30092",
    "lat": 33.9776567,
    "lng": -84.2317789,
    "charter_date": "01/00/1900"
  },
  {
    "id": 324,
    "name": "Tompkins",
    "lodge_num": 466,
    "lodge_phone": "",
    "meeting_times": "1st & 3rd Mon, 7:30 pm, 1st Mon only in Dec.",
    "address": "202 LaFayette Rd",
    "address2": "",
    "city": "Fort Oglethorpe",
    "state": "GA",
    "zip": "30707",
    "lat": 34.8802438,
    "lng": -85.2712461,
    "charter_date": "01/00/1900"
  },
  {
    "id": 321,
    "name": "Gordon Springs",
    "lodge_num": 463,
    "lodge_phone": "7063137347",
    "meeting_times": "2nd & 4th Thu, 7:30 pm, 2nd Thu only Nov & Dec",
    "address": "488 Georgia Hwy. 201",
    "address2": "",
    "city": "Rocky Face",
    "state": "GA",
    "zip": "30740",
    "lat": 34.7940724,
    "lng": -85.0451392,
    "charter_date": "01/00/1900"
  },
  {
    "id": 320,
    "name": "Euharlee",
    "lodge_num": 457,
    "lodge_phone": "4704397321",
    "meeting_times": "2nd & 4th Mon, 7:30 pm, 2nd Mon only Dec",
    "address": "107 Covered Bridge Rd",
    "address2": "",
    "city": "Euharlee",
    "state": "GA",
    "zip": "30120",
    "lat": 34.144601,
    "lng": -84.9327543,
    "charter_date": "01/00/1900"
  },
  {
    "id": 319,
    "name": "Bremen",
    "lodge_num": 456,
    "lodge_phone": "6783132060",
    "meeting_times": "2nd & 4th Tue, 7:30 pm, 2nd Tue only Dec",
    "address": "638 Alabama Ave",
    "address2": "",
    "city": "Bremen",
    "state": "GA",
    "zip": "30110",
    "lat": 33.7149291,
    "lng": -85.1423164,
    "charter_date": "01/00/1900"
  },
  {
    "id": 318,
    "name": "Lindale",
    "lodge_num": 455,
    "lodge_phone": "",
    "meeting_times": "1st & 3rd Thu, 7:30 pm, 1st Thu only Dec",
    "address": "504 Park Ave",
    "address2": "",
    "city": "Lindale",
    "state": "GA",
    "zip": "30147",
    "lat": 34.1814739,
    "lng": -85.1751711,
    "charter_date": "01/00/1900"
  },
  {
    "id": 317,
    "name": "College Park",
    "lodge_num": 454,
    "lodge_phone": "",
    "meeting_times": "4th Mon, 7:30 pm, 2nd Mon only Dec",
    "address": "1725 E. Virginia Ave",
    "address2": "",
    "city": "College Park",
    "state": "GA",
    "zip": "30337",
    "lat": 33.659573,
    "lng": -84.445391,
    "charter_date": "01/00/1900"
  },
  {
    "id": 316,
    "name": "Acacia",
    "lodge_num": 452,
    "lodge_phone": "",
    "meeting_times": "1st & 3rd Tue, 7:30 pm, 1st Tue Dec, 3rd Tue Jul, Aug & Sep",
    "address": "2001 East Derenne Ave",
    "address2": "",
    "city": "Savannah",
    "state": "GA",
    "zip": "31406",
    "lat": 32.0198449,
    "lng": -81.078479,
    "charter_date": "01/00/1900"
  },
  {
    "id": 315,
    "name": "Stone Mountain",
    "lodge_num": 449,
    "lodge_phone": "",
    "meeting_times": "1st & 3rd Mon, 7:30 pm 1st Mon only in Dec.",
    "address": "840 V.F.W. Dr",
    "address2": "",
    "city": "Stone Mountain",
    "state": "GA",
    "zip": "30047",
    "lat": 33.8159564,
    "lng": -84.0949332,
    "charter_date": "01/00/1900"
  },
  {
    "id": 313,
    "name": "Piedmont",
    "lodge_num": 447,
    "lodge_phone": "404 952 8364",
    "meeting_times": "2nd & 4th Mon, 7:30 pm, 2nd Mon only May & Dec",
    "address": "1690 Peachtree St NW",
    "address2": "",
    "city": "Atlanta",
    "state": "GA",
    "zip": "30309",
    "lat": 33.7998147,
    "lng": -84.3930596,
    "charter_date": "10/22/2002"
  },
  {
    "id": 312,
    "name": "Chamblee-Sardis",
    "lodge_num": 444,
    "lodge_phone": "404-557-2072",
    "meeting_times": "2nd & 4th Thu, 7:30 pm, 2nd Thu only Nov & Dec",
    "address": "5556 Peachtree Industrial Blvd.",
    "address2": "",
    "city": "Chamblee",
    "state": "GA",
    "zip": "30071",
    "lat": 33.9006169,
    "lng": -84.301339,
    "charter_date": "10/23/2001"
  },
  {
    "id": 311,
    "name": "Lakewood",
    "lodge_num": 443,
    "lodge_phone": "",
    "meeting_times": "1st & 3rd Fri, 7:30 pm, 1st Fri only in Dec.",
    "address": "2491 Lovejoy Rd",
    "address2": "",
    "city": "Lovejoy",
    "state": "GA",
    "zip": "30228",
    "lat": 33.434225,
    "lng": -84.31138,
    "charter_date": "10/24/2000"
  },
  {
    "id": 310,
    "name": "Springfield",
    "lodge_num": 440,
    "lodge_phone": "912-728-8806",
    "meeting_times": "1st & 3rd Thu, 8:00 pm, 3rd Thu only Jul, 1st Thu only Aug & Dec",
    "address": "127 Laurel St",
    "address2": "",
    "city": "Springfield",
    "state": "GA",
    "zip": "31329",
    "lat": 32.3677529,
    "lng": -81.3104558,
    "charter_date": "10/27/1993"
  },
  {
    "id": 309,
    "name": "Roger Wood",
    "lodge_num": 438,
    "lodge_phone": "",
    "meeting_times": "1st & 3rd Tue, 7:00 p.m. Meal at 6:00 p.m.",
    "address": "PO Box 211 (7088 Main St.) Physical Location",
    "address2": "",
    "city": "Cobbtown",
    "state": "GA",
    "zip": "30420",
    "lat": 32.2857493,
    "lng": -82.1233692,
    "charter_date": "10/28/1992"
  },
  {
    "id": 308,
    "name": "Metter",
    "lodge_num": 435,
    "lodge_phone": "9126631359",
    "meeting_times": "3rd Mon 7:30 pm, lst Mon only Dec 7:30pm",
    "address": "45 Northeast BRd St",
    "address2": "",
    "city": "Metter",
    "state": "GA",
    "zip": "30439",
    "lat": 32.3978712,
    "lng": -82.0606652,
    "charter_date": "10/28/1992"
  },
  {
    "id": 307,
    "name": "Lakeland",
    "lodge_num": 434,
    "lodge_phone": "",
    "meeting_times": "2nd & 4th Mon, 7:30 pm 2nd Mon only Dec",
    "address": "601 East Main St",
    "address2": "",
    "city": "Lakeland",
    "state": "GA",
    "zip": "31635",
    "lat": 31.0420596,
    "lng": -83.0689741,
    "charter_date": "10/16/1991"
  },
  {
    "id": 306,
    "name": "Dacula",
    "lodge_num": 433,
    "lodge_phone": "770-315-7008",
    "meeting_times": "2nd & 4th Tue, 7:30 pm, 2nd Tue only in Dec",
    "address": "2521 Second Ave",
    "address2": "",
    "city": "Dacula",
    "state": "GA",
    "zip": "30019",
    "lat": 33.9889932,
    "lng": -83.8973068,
    "charter_date": "10/16/1991"
  },
  {
    "id": 304,
    "name": "Sincerity",
    "lodge_num": 430,
    "lodge_phone": "",
    "meeting_times": "1st & 3rd Thu, 7:30 pm, 1st Thu only Dec",
    "address": "202 E. Clinton St",
    "address2": "",
    "city": "Gray",
    "state": "GA",
    "zip": "31032",
    "lat": 33.0108814,
    "lng": -83.5308823,
    "charter_date": "10/24/1978"
  },
  {
    "id": 303,
    "name": "Sylvan",
    "lodge_num": 429,
    "lodge_phone": "",
    "meeting_times": "2nd & 4th Mon, 7:00 pm, 2nd Mon only Dec",
    "address": "366 Old Carrollton Hwy",
    "address2": "",
    "city": "Sargent",
    "state": "GA",
    "zip": "30263",
    "lat": 33.4323367,
    "lng": -84.8693818,
    "charter_date": "10/29/1975"
  },
  {
    "id": 302,
    "name": "Guyton",
    "lodge_num": 428,
    "lodge_phone": "9127724543",
    "meeting_times": "1st & 3rd Tue, 8:00 pm, 3rd Tue Jun, Jul & Aug 1st Tue Dec. None Jan. 1st",
    "address": "116 Lynn Bonds Ave",
    "address2": "",
    "city": "Guyton",
    "state": "GA",
    "zip": "31312",
    "lat": 32.3324969,
    "lng": -81.392015,
    "charter_date": "10/23/1974"
  },
  {
    "id": 301,
    "name": "Long Cane",
    "lodge_num": 424,
    "lodge_phone": "7065946733",
    "meeting_times": "1st & 3rd Thu, 7:30 pm, 3rd Thu in Jul, 1st Thu in Dec",
    "address": "5057 West Point Rd",
    "address2": "",
    "city": "Lagrange",
    "state": "GA",
    "zip": "30240",
    "lat": 32.968215,
    "lng": -85.1287828,
    "charter_date": "10/25/1967"
  },
  {
    "id": 300,
    "name": "McCay",
    "lodge_num": 423,
    "lodge_phone": "706-455-0351",
    "meeting_times": "2st & 4th Tue, 7:30 pm Except Dec.   2nd Tue Only",
    "address": "57 Toccoa Ave",
    "address2": "",
    "city": "McCaysville",
    "state": "GA",
    "zip": "30555",
    "lat": 34.986235,
    "lng": -84.3602933,
    "charter_date": "10/24/1962"
  },
  {
    "id": 299,
    "name": "Sweetwater",
    "lodge_num": 421,
    "lodge_phone": "",
    "meeting_times": "2nd & 4th Thu, 7:30 pm, 2nd Thu only Nov & Dec",
    "address": "153 Luxomni Rd",
    "address2": "",
    "city": "Lilburn",
    "state": "GA",
    "zip": "30047",
    "lat": 33.8975501,
    "lng": -84.1155323,
    "charter_date": "10/25/1961"
  },
  {
    "id": 296,
    "name": "Stephens",
    "lodge_num": 414,
    "lodge_phone": "",
    "meeting_times": "1st Thu, 7:30 pm",
    "address": "855 Murphy St",
    "address2": "",
    "city": "Young Harris",
    "state": "GA",
    "zip": "30582",
    "lat": 34.9380456,
    "lng": -83.8541282,
    "charter_date": "10/23/1957"
  },
  {
    "id": 295,
    "name": "Griffin",
    "lodge_num": 413,
    "lodge_phone": "6783865080",
    "meeting_times": "2nd & 4th Tue, 8:00 pm, 2nd Tue only Dec",
    "address": "1019 West Solomon St",
    "address2": "",
    "city": "Griffin",
    "state": "GA",
    "zip": "30223",
    "lat": 33.249103,
    "lng": -84.279651,
    "charter_date": "10/23/1957"
  },
  {
    "id": 294,
    "name": "Richmond",
    "lodge_num": 412,
    "lodge_phone": "865-207-5103",
    "meeting_times": "3rd Mon, 8:00 pm",
    "address": "2601 Saxon Rd",
    "address2": "",
    "city": "Hephzibah",
    "state": "GA",
    "zip": "30815",
    "lat": 33.3165334,
    "lng": -82.0881059,
    "charter_date": "10/23/1957"
  },
  {
    "id": 293,
    "name": "Harmony",
    "lodge_num": 405,
    "lodge_phone": "",
    "meeting_times": "1st & 3rd Tue, 7:30 pm",
    "address": "604 RailRd Ave",
    "address2": "",
    "city": "Soperton",
    "state": "GA",
    "zip": "30457",
    "lat": 32.3693436,
    "lng": -82.5839244,
    "charter_date": "10/27/1953"
  },
  {
    "id": 292,
    "name": "Shannon",
    "lodge_num": 404,
    "lodge_phone": "",
    "meeting_times": "2nd Thu, 8:00 pm",
    "address": "2111 Main St",
    "address2": "",
    "city": "Comer",
    "state": "GA",
    "zip": "30629",
    "lat": 34.0653717,
    "lng": -83.1253099,
    "charter_date": "10/29/1952"
  },
  {
    "id": 291,
    "name": "Centralhatchee",
    "lodge_num": 403,
    "lodge_phone": "706-302-2136",
    "meeting_times": "2nd & 4th Thu, 7:30 pm, 2nd Thu only in Nov. & Dec.",
    "address": "851 Centralhatchee Parkway",
    "address2": "",
    "city": "Franklin",
    "state": "GA",
    "zip": "30217",
    "lat": 33.37107,
    "lng": -85.10618,
    "charter_date": "10/29/1952"
  },
  {
    "id": 288,
    "name": "Rossville",
    "lodge_num": 397,
    "lodge_phone": "423-710-6835",
    "meeting_times": "2nd Tue, 7:30 pm",
    "address": "102 McFarland Ave",
    "address2": "",
    "city": "Rossville",
    "state": "GA",
    "zip": "30741",
    "lat": 34.9834437,
    "lng": -85.2863893,
    "charter_date": "10/26/1949"
  },
  {
    "id": 286,
    "name": "Kingston",
    "lodge_num": 394,
    "lodge_phone": "",
    "meeting_times": "1st & 3rd Thu, 7:30 pm, 1st Thu only in Dec",
    "address": "17 Cemetery St",
    "address2": "",
    "city": "Kingston",
    "state": "GA",
    "zip": "30145",
    "lat": 34.228928,
    "lng": -84.948246,
    "charter_date": "10/27/1948"
  },
  {
    "id": 285,
    "name": "Milan",
    "lodge_num": 393,
    "lodge_phone": "",
    "meeting_times": "2nd & 4th Thu, 8:00 pm, 2nd Thu only in Nov & Dec",
    "address": "478 Lee St",
    "address2": "",
    "city": "Milan",
    "state": "GA",
    "zip": "31060",
    "lat": 32.0180058,
    "lng": -83.0607968,
    "charter_date": "10/27/1948"
  },
  {
    "id": 284,
    "name": "Nahunta",
    "lodge_num": 391,
    "lodge_phone": "912-282-0343",
    "meeting_times": "1st & 3rd Tue, 7:30 pm, 3rd Tue only in Dec",
    "address": "1151 Broome St",
    "address2": "",
    "city": "Nahunta",
    "state": "GA",
    "zip": "31553",
    "lat": 31.2049023,
    "lng": -81.9797891,
    "charter_date": "10/27/1948"
  },
  {
    "id": 281,
    "name": "Douglas",
    "lodge_num": 386,
    "lodge_phone": "",
    "meeting_times": "1st Mon, 7:30 pm, except legal holidays",
    "address": "106 West Franklin St",
    "address2": "",
    "city": "Douglas",
    "state": "GA",
    "zip": "31533",
    "lat": 31.5132147,
    "lng": -82.8513717,
    "charter_date": "10/26/1921"
  },
  {
    "id": 279,
    "name": "Yonah",
    "lodge_num": 382,
    "lodge_phone": "",
    "meeting_times": "2nd & 4th Thu, 7:30 pm, 2nd Thu only Nov & Dec",
    "address": "59 White St",
    "address2": "",
    "city": "Cleveland",
    "state": "GA",
    "zip": "30528",
    "lat": 34.6007893,
    "lng": -83.7674636,
    "charter_date": "10/29/1919"
  },
  {
    "id": 278,
    "name": "Moultrie",
    "lodge_num": 381,
    "lodge_phone": "229-850-7409",
    "meeting_times": "1st Mon, 8:00 pm",
    "address": "617 5th Ave, SE",
    "address2": "",
    "city": "Moultrie",
    "state": "GA",
    "zip": "31768",
    "lat": 31.1745917,
    "lng": -83.7815505,
    "charter_date": "11/00/1916"
  },
  {
    "id": 277,
    "name": "Madison",
    "lodge_num": 376,
    "lodge_phone": "None",
    "meeting_times": "2nd & 4th Mon, 7:30 pm, 2nd Mon only in Dec",
    "address": "1020 Lakeview Street",
    "address2": "",
    "city": "Madison",
    "state": "GA",
    "zip": "30650",
    "lat": 33.59848,
    "lng": -83.45721,
    "charter_date": "10/29/1913"
  },
  {
    "id": 275,
    "name": "Flint Hill",
    "lodge_num": 371,
    "lodge_phone": "",
    "meeting_times": "2nd & 4th Mon, 7:30 pm, 2nd Mon only Nov & Dec",
    "address": "7156 Hwy 5",
    "address2": "",
    "city": "Mcwhorter",
    "state": "GA",
    "zip": "30135",
    "lat": 33.610279,
    "lng": -84.837327,
    "charter_date": "10/30/1912"
  },
  {
    "id": 274,
    "name": "Thomasville",
    "lodge_num": 369,
    "lodge_phone": "",
    "meeting_times": "2nd & 4th Thu, 7:30 pm, 2nd Thu only Nov & Dec",
    "address": "310 North Pinetree Boulevard",
    "address2": "",
    "city": "Thomasville",
    "state": "GA",
    "zip": "31792",
    "lat": 30.8597791,
    "lng": -83.9531979,
    "charter_date": "11/00/1911"
  },
  {
    "id": 273,
    "name": "Screven",
    "lodge_num": 368,
    "lodge_phone": "",
    "meeting_times": "1st & 3rd Thu, 7:30 pm, 1st Thu only Dec",
    "address": "214 Sharpe St",
    "address2": "",
    "city": "Screven",
    "state": "GA",
    "zip": "31560",
    "lat": 31.4852532,
    "lng": -82.0169006,
    "charter_date": "10/27/1910"
  },
  {
    "id": 272,
    "name": "Dooly",
    "lodge_num": 367,
    "lodge_phone": "",
    "meeting_times": "4th Thur, 7:30 pm 3rd Thur in Nov & Dec.",
    "address": "7470 State Hwy 325",
    "address2": "",
    "city": "Blairsville",
    "state": "GA",
    "zip": "30512",
    "lat": 34.9600086,
    "lng": -84.0667789,
    "charter_date": "10/27/1910"
  },
  {
    "id": 271,
    "name": "Plainville",
    "lodge_num": 364,
    "lodge_phone": "",
    "meeting_times": "1st & 3rd Thu, 7:30 pm, 1st Thu only in Dec",
    "address": "439 County Line Rd SW",
    "address2": "",
    "city": "Plainville",
    "state": "GA",
    "zip": "30733",
    "lat": 34.401427,
    "lng": -85.0337694,
    "charter_date": "10/27/1910"
  },
  {
    "id": 270,
    "name": "Washington",
    "lodge_num": 359,
    "lodge_phone": "",
    "meeting_times": "1st & 3rd Tue, 7:00 pm 1st Tue in Dec",
    "address": "55 Wilson St",
    "address2": "",
    "city": "Ellaville",
    "state": "GA",
    "zip": "31806",
    "lat": 32.2396442,
    "lng": -84.3070321,
    "charter_date": "10/27/1909"
  },
  {
    "id": 269,
    "name": "Whigham",
    "lodge_num": 356,
    "lodge_phone": "",
    "meeting_times": "1st & 3rd Tue, 7:30 pm",
    "address": "113 W Broad Avenue",
    "address2": "",
    "city": "Whigham",
    "state": "GA",
    "zip": "39897",
    "lat": 30.8833895,
    "lng": -84.3246246,
    "charter_date": "10/27/1909"
  },
  {
    "id": 268,
    "name": "Hollingsworth",
    "lodge_num": 355,
    "lodge_phone": "",
    "meeting_times": "1st Thu, 7:30 pm",
    "address": "148 Morrison Lane",
    "address2": "",
    "city": "Hollingsworth",
    "state": "GA",
    "zip": "",
    "lat": 32.1656221,
    "lng": -82.9000751,
    "charter_date": "10/27/1909"
  },
  {
    "id": 267,
    "name": "Lincolnton",
    "lodge_num": 354,
    "lodge_phone": "",
    "meeting_times": "3rd Thu, 7:30 pm",
    "address": "250 Peachtree St",
    "address2": "",
    "city": "Lincolnton",
    "state": "GA",
    "zip": "30817",
    "lat": 33.79183,
    "lng": -82.4777869,
    "charter_date": "10/28/1908"
  },
  {
    "id": 266,
    "name": "Pine Level",
    "lodge_num": 353,
    "lodge_phone": "",
    "meeting_times": "2nd & 4th Mon, 7:30 pm, 2nd Mon only Dec",
    "address": "1055 Irwinville Hwy",
    "address2": "",
    "city": "Fitzgerald",
    "state": "GA",
    "zip": "31750",
    "lat": 31.7137559,
    "lng": -83.2557595,
    "charter_date": "10/28/1908"
  },
  {
    "id": 265,
    "name": "Lula",
    "lodge_num": 352,
    "lodge_phone": "",
    "meeting_times": "1st & 3rd Thu, 7:30 pm",
    "address": "5980 Main St",
    "address2": "",
    "city": "Lula",
    "state": "GA",
    "zip": "30554",
    "lat": 34.3875375,
    "lng": -83.6671109,
    "charter_date": "10/28/1908"
  },
  {
    "id": 264,
    "name": "Sand Hill",
    "lodge_num": 350,
    "lodge_phone": "770-883-2997",
    "meeting_times": "1st & 3rd Thursday, Only 1st Thurs Dec",
    "address": "3768 Old Hwy 61",
    "address2": "",
    "city": "Carrollton",
    "state": "GA",
    "zip": "30117",
    "lat": 32.1656221,
    "lng": -82.9000751,
    "charter_date": "10/28/1908"
  },
  {
    "id": 263,
    "name": "Morning Star",
    "lodge_num": 349,
    "lodge_phone": "",
    "meeting_times": "2nd & 4th Tue, 7:30 pm, 2nd Tue only Dec",
    "address": "14 North Ave",
    "address2": "",
    "city": "Fairmount",
    "state": "GA",
    "zip": "30139",
    "lat": 34.4448504,
    "lng": -84.7012859,
    "charter_date": "10/28/1908"
  },
  {
    "id": 262,
    "name": "John H. Jones",
    "lodge_num": 348,
    "lodge_phone": "",
    "meeting_times": "3rd Thu, 8:00 pm",
    "address": "505 Crawford W. Long Rd",
    "address2": "",
    "city": "Danielsville",
    "state": "GA",
    "zip": "30633",
    "lat": 34.1330406,
    "lng": -83.2274599,
    "charter_date": "10/28/1908"
  },
  {
    "id": 261,
    "name": "Hahira",
    "lodge_num": 346,
    "lodge_phone": "",
    "meeting_times": "1st & 3rd Tue, 7:30 pm",
    "address": "410 East Main St",
    "address2": "",
    "city": "Hahira",
    "state": "GA",
    "zip": "31632",
    "lat": 30.9917256,
    "lng": -83.365097,
    "charter_date": "10/30/1907"
  },
  {
    "id": 260,
    "name": "DeWald",
    "lodge_num": 343,
    "lodge_phone": "",
    "meeting_times": "2nd & 4th Mon 7:30 pm, 2nd Mon only Jun, Jul, Aug & Dec",
    "address": "120 Fairplay St",
    "address2": "",
    "city": "Rutledge",
    "state": "GA",
    "zip": "30663",
    "lat": 33.6266429,
    "lng": -83.612099,
    "charter_date": "10/30/1907"
  },
  {
    "id": 259,
    "name": "Dexter",
    "lodge_num": 340,
    "lodge_phone": "",
    "meeting_times": "1st & 3rd Mon, 7:30 pm, 1st Mon only Dec",
    "address": "340 W. Main St",
    "address2": "",
    "city": "Dexter",
    "state": "GA",
    "zip": "31019",
    "lat": 32.4310673,
    "lng": -83.0634053,
    "charter_date": "11/00/1906"
  },
  {
    "id": 258,
    "name": "Lyerly",
    "lodge_num": 338,
    "lodge_phone": "",
    "meeting_times": "1st & 3rd Thu 7:30 pm, 1st Thu only Dec",
    "address": "5077 Hwy 114",
    "address2": "",
    "city": "Lyerly",
    "state": "GA",
    "zip": "30730",
    "lat": 34.4169146,
    "lng": -85.3923305,
    "charter_date": "11/00/1906"
  },
  {
    "id": 257,
    "name": "Turin",
    "lodge_num": 337,
    "lodge_phone": "770-881-4729",
    "meeting_times": "1st & 3rd Thu, 7:30 pm, 1st Thu only Dec",
    "address": "25 South Hunter St",
    "address2": "",
    "city": "Turin",
    "state": "GA",
    "zip": "30277",
    "lat": 33.3248268,
    "lng": -84.6370577,
    "charter_date": "11/00/1906"
  },
  {
    "id": 256,
    "name": "Ezel",
    "lodge_num": 335,
    "lodge_phone": "912-481-4315",
    "meeting_times": "2nd & 4th Thu, 8:00 pm, 2nd Thu Nov & Dec",
    "address": "10849 US Hwy 280 East",
    "address2": "",
    "city": "Claxton",
    "state": "GA",
    "zip": "30417",
    "lat": 31.9923268,
    "lng": -83.3144729,
    "charter_date": "11/00/1906"
  },
  {
    "id": 255,
    "name": "Davidson",
    "lodge_num": 334,
    "lodge_phone": "",
    "meeting_times": "1st & 3rd Tue, 7:30 pm, 1st Tue only Dec",
    "address": "1957 Hwy 92",
    "address2": "",
    "city": "Fayetteville",
    "state": "GA",
    "zip": "30214",
    "lat": 33.5336996,
    "lng": -84.5263584,
    "charter_date": "11/00/1906"
  },
  {
    "id": 254,
    "name": "Winder",
    "lodge_num": 333,
    "lodge_phone": "",
    "meeting_times": "2nd Thu, 7:30 pm",
    "address": "83 Kelly Dr",
    "address2": "",
    "city": "Winder",
    "state": "GA",
    "zip": "30680",
    "lat": 33.995309,
    "lng": -83.72172,
    "charter_date": "11/00/1905"
  },
  {
    "id": 253,
    "name": "Vidalia",
    "lodge_num": 330,
    "lodge_phone": "",
    "meeting_times": "2nd & 4th Mon, 7:30 pm, 2nd Mon only Dec",
    "address": "604 Slayton St",
    "address2": "",
    "city": "Vidalia",
    "state": "GA",
    "zip": "30474",
    "lat": 32.2078504,
    "lng": -82.4040148,
    "charter_date": "11/00/1905"
  },
  {
    "id": 252,
    "name": "Woodbine",
    "lodge_num": 326,
    "lodge_phone": "",
    "meeting_times": "2nd & 4th Tue, 7:00 pm, 2nd Tue Dec 6:30pm",
    "address": "305 East Oak St",
    "address2": "",
    "city": "Woodbine",
    "state": "GA",
    "zip": "31569",
    "lat": 30.968338,
    "lng": -81.724867,
    "charter_date": "10/29/1891"
  },
  {
    "id": 251,
    "name": "Clarkesville",
    "lodge_num": 325,
    "lodge_phone": "706-371-8170",
    "meeting_times": "1st & 3rd Mon, 7:30 pm, 1st Mon. in Dec",
    "address": "487 Monroe St",
    "address2": "",
    "city": "Clarkesville",
    "state": "GA",
    "zip": "30523",
    "lat": 34.6146465,
    "lng": -83.5284944,
    "charter_date": "10/27/1904"
  },
  {
    "id": 249,
    "name": "Nelms",
    "lodge_num": 323,
    "lodge_phone": "770-842-7767",
    "meeting_times": "2nd & 4th Monday, 7:30 pm, 2nd Monday only Dec",
    "address": "455 Concord Rd SE",
    "address2": "",
    "city": "Smyrna",
    "state": "GA",
    "zip": "30082",
    "lat": 33.8659083,
    "lng": -84.5407611,
    "charter_date": "10/23/1957"
  },
  {
    "id": 248,
    "name": "Temple",
    "lodge_num": 322,
    "lodge_phone": "",
    "meeting_times": "2nd & 4th Tue, 7:30 pm, 2nd Tue only Dec",
    "address": "40 James St",
    "address2": "",
    "city": "Temple",
    "state": "GA",
    "zip": "30179",
    "lat": 33.736195,
    "lng": -85.0326879,
    "charter_date": "10/27/1904"
  },
  {
    "id": 247,
    "name": "Greenville",
    "lodge_num": 321,
    "lodge_phone": "",
    "meeting_times": "2nd & 4th Mon, 7:30 pm, 2nd Mon only Dec",
    "address": "720 Gay Rd",
    "address2": "",
    "city": "Greenville",
    "state": "GA",
    "zip": "30222",
    "lat": 33.0338837,
    "lng": -84.6967951,
    "charter_date": "10/27/1904"
  },
  {
    "id": 246,
    "name": "Hill City",
    "lodge_num": 319,
    "lodge_phone": "1-706-277-2991",
    "meeting_times": "1st & 3rd Tue, 7:30 pm, 1st Tue Dec",
    "address": "1402",
    "address2": "",
    "city": "Hill City",
    "state": "GA",
    "zip": "30341",
    "lat": 33.914752,
    "lng": -84.2974969,
    "charter_date": "10/29/1903"
  },
  {
    "id": 245,
    "name": "Mount Zion",
    "lodge_num": 316,
    "lodge_phone": "678-346-0299",
    "meeting_times": "2nd & 4th Thu, 7:30 pm, 2nd Thu only Nov & Dec",
    "address": "6635 Little Mill Rd",
    "address2": "",
    "city": "Gainesville",
    "state": "GA",
    "zip": "30506",
    "lat": 34.2465201,
    "lng": -84.0204202,
    "charter_date": "10/27/1920"
  },
  {
    "id": 244,
    "name": "Irwinville",
    "lodge_num": 315,
    "lodge_phone": "",
    "meeting_times": "1st Thur, 7:30 pm",
    "address": "1850 Jefferson Davis Memorial Hwy",
    "address2": "",
    "city": "Irwinville",
    "state": "GA",
    "zip": "31760",
    "lat": 31.6478491,
    "lng": -83.3813127,
    "charter_date": "10/29/1903"
  },
  {
    "id": 243,
    "name": "Meyerhardt",
    "lodge_num": 314,
    "lodge_phone": "",
    "meeting_times": "2nd & 4th Thu, 7:30 pm, 2nd Thu in Nov & Dec",
    "address": "1801 Big Shanty Dr",
    "address2": "",
    "city": "Kennesaw",
    "state": "GA",
    "zip": "30144",
    "lat": 34.0202999,
    "lng": -84.6036776,
    "charter_date": "10/27/1920"
  },
  {
    "id": 242,
    "name": "Pelham",
    "lodge_num": 312,
    "lodge_phone": "12293288636",
    "meeting_times": "1st & 3rd Tue, 7:30 pm, 1st Tues Only in Dec",
    "address": "314 Grady St",
    "address2": "",
    "city": "Pelham",
    "state": "GA",
    "zip": "31779",
    "lat": 31.1208093,
    "lng": -84.1546166,
    "charter_date": "10/29/1903"
  },
  {
    "id": 241,
    "name": "Adel",
    "lodge_num": 310,
    "lodge_phone": "",
    "meeting_times": "1st & 3rd Thu, 7:30 pm",
    "address": "200 Joy St",
    "address2": "",
    "city": "Adel",
    "state": "GA",
    "zip": "31620",
    "lat": 31.1313256,
    "lng": -83.4338273,
    "charter_date": "10/29/1929"
  },
  {
    "id": 240,
    "name": "Toccoa",
    "lodge_num": 309,
    "lodge_phone": "",
    "meeting_times": "1st & 3rd Thu, 7:30 pm",
    "address": "315 North BRd St",
    "address2": "",
    "city": "Toccoa",
    "state": "GA",
    "zip": "30577",
    "lat": 34.5800813,
    "lng": -83.3332084,
    "charter_date": "10/31/1901"
  },
  {
    "id": 238,
    "name": "Indian Springs",
    "lodge_num": 307,
    "lodge_phone": "",
    "meeting_times": "1st & 3rd Sat, 7:30 pm, 1st Sat only in Dec",
    "address": "357 Heard St",
    "address2": "",
    "city": "Flovilla",
    "state": "GA",
    "zip": "30216",
    "lat": 33.2522339,
    "lng": -83.8915911,
    "charter_date": "10/31/1901"
  },
  {
    "id": 237,
    "name": "Coosawattee",
    "lodge_num": 306,
    "lodge_phone": "",
    "meeting_times": "2nd & 4th Tue, 7:30 pm, 2nd Tue only Dec",
    "address": "2154 Pine Chapel Rd NE",
    "address2": "",
    "city": "Calhoun",
    "state": "GA",
    "zip": "30701",
    "lat": 34.5790371,
    "lng": -84.8618159,
    "charter_date": "11/00/1900"
  },
  {
    "id": 236,
    "name": "Waycross",
    "lodge_num": 305,
    "lodge_phone": "912 283-0439",
    "meeting_times": "2nd & 4th Tue, 7:30 pm 2nd Tue only Dec",
    "address": "1523 Carswell Ave",
    "address2": "",
    "city": "Waycross",
    "state": "GA",
    "zip": "31503",
    "lat": 31.2134056,
    "lng": -82.3774541,
    "charter_date": "11/00/1916"
  },
  {
    "id": 235,
    "name": "Mount Hermon",
    "lodge_num": 304,
    "lodge_phone": "",
    "meeting_times": "2nd & 4th Thu, 7:00 pm, 2nd Thu Nov & Dec",
    "address": "3614 Norris Rd",
    "address2": "",
    "city": "Columbus",
    "state": "GA",
    "zip": "31907",
    "lat": 32.492913,
    "lng": -84.934375,
    "charter_date": "11/00/1899"
  },
  {
    "id": 234,
    "name": "Bryan",
    "lodge_num": 303,
    "lodge_phone": "",
    "meeting_times": "1st & 3rd Tue, 7:00 pm, lst Tue only Jul, Aug & Dec",
    "address": "33 Bass Dr",
    "address2": "",
    "city": "Richmond Hill",
    "state": "GA",
    "zip": "31324",
    "lat": 31.9453903,
    "lng": -81.3118979,
    "charter_date": "11/00/1899"
  },
  {
    "id": 233,
    "name": "Millikens Creek",
    "lodge_num": 302,
    "lodge_phone": "912.805.4269",
    "meeting_times": "1st & 3rd Mon, 7:30 pm, 1st Mon only in Dec",
    "address": "2829 Cedar Crossing Rd",
    "address2": "",
    "city": "Uvalda",
    "state": "GA",
    "zip": "30473",
    "lat": 32.0239696,
    "lng": -82.4073202,
    "charter_date": "11/00/1899"
  },
  {
    "id": 232,
    "name": "Sylvania",
    "lodge_num": 301,
    "lodge_phone": "",
    "meeting_times": "2nd Thu. 7:00 pm",
    "address": "411 Frontage Road East",
    "address2": "",
    "city": "Sylvania",
    "state": "GA",
    "zip": "30467",
    "lat": 32.7479515,
    "lng": -81.6395984,
    "charter_date": "10/30/1850"
  },
  {
    "id": 231,
    "name": "Crawfish Springs",
    "lodge_num": 300,
    "lodge_phone": "",
    "meeting_times": "3rd Sat, 7:30 pm",
    "address": "106 Cove Rd",
    "address2": "",
    "city": "Chickamauga",
    "state": "GA",
    "zip": "30707",
    "lat": 34.8721782,
    "lng": -85.2916166,
    "charter_date": "10/27/1898"
  },
  {
    "id": 230,
    "name": "Cairo",
    "lodge_num": 299,
    "lodge_phone": "",
    "meeting_times": "2nd & 4th Tue, 7:30 pm, 2nd Tue only Dec",
    "address": "206 1st St NE",
    "address2": "",
    "city": "Cairo",
    "state": "GA",
    "zip": "39828",
    "lat": 30.8786164,
    "lng": -84.206541,
    "charter_date": "10/27/1898"
  },
  {
    "id": 229,
    "name": "Rutland",
    "lodge_num": 298,
    "lodge_phone": "",
    "meeting_times": "1st & 3rd Mon, 7:30 pm, 1st Mon Dec, 3rd Mon Jul & Sept",
    "address": "6460 Houston Rd",
    "address2": "",
    "city": "Macon",
    "state": "GA",
    "zip": "31216",
    "lat": 32.7248581,
    "lng": -83.6844292,
    "charter_date": "10/27/1897"
  },
  {
    "id": 228,
    "name": "Cordelia",
    "lodge_num": 296,
    "lodge_phone": "",
    "meeting_times": "1st & 3rd Tue, 7:00 pm, 1st Tues only Dec",
    "address": "215 East 12th Ave",
    "address2": "",
    "city": "Cordele",
    "state": "GA",
    "zip": "31015",
    "lat": 31.968344,
    "lng": -83.779926,
    "charter_date": "10/27/1897"
  },
  {
    "id": 227,
    "name": "Masters",
    "lodge_num": 295,
    "lodge_phone": "",
    "meeting_times": "1st & 3rd Tue, 7:30 pm, 1st Tues only Dec",
    "address": "3038 LaVista Rd",
    "address2": "",
    "city": "Decatur",
    "state": "GA",
    "zip": "30033",
    "lat": 33.8260076,
    "lng": -84.2840413,
    "charter_date": "10/27/1897"
  },
  {
    "id": 226,
    "name": "Hudson",
    "lodge_num": 294,
    "lodge_phone": "706-215-4282",
    "meeting_times": "1st Thu, 7:30pm, if holiday on mtg. date meeting will be on 3rd Thu.",
    "address": "1364 Hospital Rd",
    "address2": "",
    "city": "Commerce",
    "state": "GA",
    "zip": "30529",
    "lat": 34.224654,
    "lng": -83.461557,
    "charter_date": "10/27/1897"
  },
  {
    "id": 225,
    "name": "Buford",
    "lodge_num": 292,
    "lodge_phone": "404-713-7928",
    "meeting_times": "2nd & 4th Thu, 7:30 pm, 2nd Thu only Nov & Dec",
    "address": "99 Spring St",
    "address2": "",
    "city": "Buford",
    "state": "GA",
    "zip": "30518",
    "lat": 34.1218842,
    "lng": -84.0071866,
    "charter_date": "10/30/1895"
  },
  {
    "id": 224,
    "name": "Tilton",
    "lodge_num": 291,
    "lodge_phone": "",
    "meeting_times": "1st & 3rd Sat, Early Candlelight, 3rd Sat Jul, 1st Sat Dec",
    "address": "812 Tilton Church Rd",
    "address2": "",
    "city": "Dalton",
    "state": "GA",
    "zip": "30721",
    "lat": 34.6640041,
    "lng": -84.9395659,
    "charter_date": "10/30/1895"
  },
  {
    "id": 223,
    "name": "Douglasville",
    "lodge_num": 289,
    "lodge_phone": "",
    "meeting_times": "2nd & 4th Thu, 7:30 pm, 2nd Thu only in Nov & Dec",
    "address": "8519 Bowden St",
    "address2": "",
    "city": "Douglasville",
    "state": "GA",
    "zip": "30134",
    "lat": 33.7488984,
    "lng": -84.7492639,
    "charter_date": "11/00/1894"
  },
  {
    "id": 222,
    "name": "East Point",
    "lodge_num": 288,
    "lodge_phone": "",
    "meeting_times": "1st Tue, 7:30 pm",
    "address": "201 Masonic Place",
    "address2": "",
    "city": "Peachtree City",
    "state": "GA",
    "zip": "30269",
    "lat": 33.4136729,
    "lng": -84.6024964,
    "charter_date": "11/00/1894"
  },
  {
    "id": 221,
    "name": "Hazlehurst",
    "lodge_num": 283,
    "lodge_phone": "",
    "meeting_times": "2nd & 4th Mon, 7:30 pm, 2nd Mon only Dec",
    "address": "105 Hillcrest Ave",
    "address2": "",
    "city": "Hazelhurst",
    "state": "GA",
    "zip": "31539",
    "lat": 31.8671137,
    "lng": -82.5810117,
    "charter_date": "11/00/1894"
  },
  {
    "id": 220,
    "name": "Clyo",
    "lodge_num": 280,
    "lodge_phone": "",
    "meeting_times": "2nd& 4th Mon, 8:00 pm, 2nd Mon only May,Jun, Jul, Aug & Dec",
    "address": "153 6th St",
    "address2": "",
    "city": "Clyo",
    "state": "GA",
    "zip": "31303",
    "lat": 32.4864884,
    "lng": -81.2654178,
    "charter_date": "11/00/1893"
  },
  {
    "id": 219,
    "name": "Eugene Smith",
    "lodge_num": 279,
    "lodge_phone": "",
    "meeting_times": "1st & 3rd Thu, Oct-Mar 7:30 pm, Apr-Sept 8:00 pm, 1st Thu only Dec",
    "address": "504 1st Ave, SE",
    "address2": "",
    "city": "Eastman",
    "state": "GA",
    "zip": "31023",
    "lat": 32.1963316,
    "lng": -83.1731355,
    "charter_date": "10/27/1892"
  },
  {
    "id": 218,
    "name": "Harlem",
    "lodge_num": 276,
    "lodge_phone": "",
    "meeting_times": "3rd Tue, 8:00 pm",
    "address": "255 Recreation Dr",
    "address2": "",
    "city": "Harlem",
    "state": "GA",
    "zip": "30814",
    "lat": 33.416674,
    "lng": -82.304548,
    "charter_date": "11/00/1922"
  },
  {
    "id": 217,
    "name": "Waynesboro",
    "lodge_num": 274,
    "lodge_phone": "",
    "meeting_times": "1st Thu, 7:30pm",
    "address": "529 Myrick St",
    "address2": "",
    "city": "Waynesboro",
    "state": "GA",
    "zip": "30830",
    "lat": 33.0889473,
    "lng": -82.0138666,
    "charter_date": "10/27/1892"
  },
  {
    "id": 216,
    "name": "Western Light",
    "lodge_num": 272,
    "lodge_phone": "",
    "meeting_times": "2nd & 4th Thu, 7:30 pm, 2nd Thu only Nov & Dec",
    "address": "407-A Bowen St",
    "address2": "",
    "city": "Abbeville",
    "state": "GA",
    "zip": "31001",
    "lat": 31.9829285,
    "lng": -83.3090496,
    "charter_date": "10/27/1892"
  },
  {
    "id": 215,
    "name": "Hinesville",
    "lodge_num": 271,
    "lodge_phone": "",
    "meeting_times": "1st & 3rd Thu, 7:30 pm, 1st Thu only Dec, None. Jan 1st or Jul 4th",
    "address": "933 B.E.G. Miles Parkway",
    "address2": "",
    "city": "Hinesville",
    "state": "GA",
    "zip": "31313",
    "lat": 31.8246111,
    "lng": -81.6262918,
    "charter_date": "10/29/1891"
  },
  {
    "id": 214,
    "name": "Blackshear",
    "lodge_num": 270,
    "lodge_phone": "",
    "meeting_times": "1st & 3rd Mon, 7:30 pm, 1st Mon only in Dec",
    "address": "221 Park Ave",
    "address2": "",
    "city": "Blackshear",
    "state": "GA",
    "zip": "31516",
    "lat": 31.3029153,
    "lng": -82.2396554,
    "charter_date": "10/29/1891"
  },
  {
    "id": 213,
    "name": "Carter Hill",
    "lodge_num": 268,
    "lodge_phone": "",
    "meeting_times": "2nd Tue, 7:30 pm",
    "address": "782 Christmas Ave",
    "address2": "",
    "city": "Bethlehem",
    "state": "GA",
    "zip": "30620",
    "lat": 33.9307,
    "lng": -83.7135629,
    "charter_date": "10/28/1892"
  },
  {
    "id": 212,
    "name": "Salem",
    "lodge_num": 267,
    "lodge_phone": "",
    "meeting_times": "2nd & 4th Thu, 7:30 pm, 2nd Thu only Nov & Dec",
    "address": "6952 Hwy 374",
    "address2": "",
    "city": "Donalsonville",
    "state": "GA",
    "zip": "39845",
    "lat": 30.885546,
    "lng": -84.8629286,
    "charter_date": "10/29/1891"
  },
  {
    "id": 211,
    "name": "Rabun Gap",
    "lodge_num": 265,
    "lodge_phone": "",
    "meeting_times": "2nd & 4th Thu, 7:30 pm 2nd Thu only in Nov & Dec",
    "address": "84 West Savannah St",
    "address2": "",
    "city": "Clayton",
    "state": "GA",
    "zip": "30525",
    "lat": 34.8784134,
    "lng": -83.4018708,
    "charter_date": "10/29/1891"
  },
  {
    "id": 210,
    "name": "LeRoy Duncan",
    "lodge_num": 262,
    "lodge_phone": "",
    "meeting_times": "2nd Thu, 11:00 AM",
    "address": "1690 Peachtree St. NW",
    "address2": "",
    "city": "Atlanta",
    "state": "GA",
    "zip": "30309",
    "lat": 33.7998147,
    "lng": -84.3930596,
    "charter_date": "10/29/1891"
  },
  {
    "id": 209,
    "name": "Ball Ground",
    "lodge_num": 261,
    "lodge_phone": "",
    "meeting_times": "2nd & 4th Mon, 7:30 pm, 2nd Mon only Jun, Jul, Aug & Dec",
    "address": "390 Gilmer Ferry Rd",
    "address2": "",
    "city": "Ball Ground",
    "state": "GA",
    "zip": "30107",
    "lat": 34.3369018,
    "lng": -84.3742525,
    "charter_date": "10/29/1891"
  },
  {
    "id": 208,
    "name": "Stilesboro",
    "lodge_num": 260,
    "lodge_phone": "7706050026",
    "meeting_times": "1st & 3rd Thu, 7:30 pm, 1st Thu only in Dec",
    "address": "2309 Rockmart Hwy",
    "address2": "",
    "city": "Stilesboro",
    "state": "GA",
    "zip": "30178",
    "lat": 34.101815,
    "lng": -84.9255411,
    "charter_date": "10/29/1891"
  },
  {
    "id": 207,
    "name": "Unicoy",
    "lodge_num": 259,
    "lodge_phone": "",
    "meeting_times": "2nd Mon, 7:30 pm",
    "address": "60 North Main St",
    "address2": "",
    "city": "Hiawassee",
    "state": "GA",
    "zip": "30546",
    "lat": 34.9497033,
    "lng": -83.7581714,
    "charter_date": "10/29/1891"
  },
  {
    "id": 206,
    "name": "Gibson",
    "lodge_num": 257,
    "lodge_phone": "",
    "meeting_times": "1st & 3rd Tue, 7:30 pm, 1st Tue only in Dec, None on Legal Holidays",
    "address": "28 Warren St",
    "address2": "",
    "city": "Gibson",
    "state": "GA",
    "zip": "30810",
    "lat": 33.2339405,
    "lng": -82.5952594,
    "charter_date": "10/30/1890"
  },
  {
    "id": 205,
    "name": "Tennille",
    "lodge_num": 256,
    "lodge_phone": "",
    "meeting_times": "2nd & 4th Tue, 7:00 pm, 2nd Tue only Dec",
    "address": "466 South Hwy 15",
    "address2": "",
    "city": "Tennille",
    "state": "GA",
    "zip": "31089",
    "lat": 32.9429388,
    "lng": -82.8097938,
    "charter_date": "10/30/1890"
  },
  {
    "id": 204,
    "name": "Mabel",
    "lodge_num": 255,
    "lodge_phone": "",
    "meeting_times": "2nd & 4th Tue, 7:30 pm, 2nd Tue only Oct & Dec",
    "address": "2936 Riverside Dr",
    "address2": "",
    "city": "Macon",
    "state": "GA",
    "zip": "31204",
    "lat": 32.882167,
    "lng": -83.670728,
    "charter_date": "10/30/1890"
  },
  {
    "id": 203,
    "name": "Morven",
    "lodge_num": 254,
    "lodge_phone": "",
    "meeting_times": "4th Thu, 2nd Thu in Dec., 7:30pm",
    "address": "201-203 Gordon St",
    "address2": "",
    "city": "Morven",
    "state": "GA",
    "zip": "31638",
    "lat": 30.9432522,
    "lng": -83.5005741,
    "charter_date": "10/29/1891"
  },
  {
    "id": 202,
    "name": "Draketown",
    "lodge_num": 252,
    "lodge_phone": "",
    "meeting_times": "2nd & 4th Fri, 7:30 pm, 2nd Fri only in Dec",
    "address": "43 Eaves Dr",
    "address2": "",
    "city": "Draketown",
    "state": "GA",
    "zip": "30179",
    "lat": 33.826023,
    "lng": -85.0430498,
    "charter_date": "10/30/1895"
  },
  {
    "id": 201,
    "name": "Rex",
    "lodge_num": 251,
    "lodge_phone": "",
    "meeting_times": "2nd & 4th Fri, 7:30 pm, 2nd Fri only Nov & Dec",
    "address": "5230 Macon Hwy",
    "address2": "",
    "city": "Ellenwood",
    "state": "GA",
    "zip": "30294",
    "lat": 33.612331,
    "lng": -84.3050108,
    "charter_date": "10/30/1890"
  },
  {
    "id": 198,
    "name": "Screven",
    "lodge_num": 248,
    "lodge_phone": "",
    "meeting_times": "1st and 3rd Mon, 7:30 pm, 3rd Mon in Jul, Aug, & Sep, 1st Mon in Dec",
    "address": "110 Winthrope Ave",
    "address2": "",
    "city": "Millen",
    "state": "GA",
    "zip": "30442",
    "lat": 32.8037482,
    "lng": -81.9433875,
    "charter_date": "10/27/1886"
  },
  {
    "id": 197,
    "name": "Woodstock",
    "lodge_num": 246,
    "lodge_phone": "",
    "meeting_times": "2nd & 4th Thu, 7:30 pm, 2nd Thu only in Nov & Dec",
    "address": "668 Arnold Mill Rd",
    "address2": "",
    "city": "Woodstock",
    "state": "GA",
    "zip": "30188",
    "lat": 34.109777,
    "lng": -84.446369,
    "charter_date": "10/27/1904"
  },
  {
    "id": 196,
    "name": "Swainsboro",
    "lodge_num": 244,
    "lodge_phone": "",
    "meeting_times": "2nd & 4th Thu, 7:30 pm, 1st Thu only Nov & Dec",
    "address": "211 W. Main St",
    "address2": "",
    "city": "Swainsboro",
    "state": "GA",
    "zip": "30401",
    "lat": 32.5959496,
    "lng": -82.3366509,
    "charter_date": "10/29/1886"
  },
  {
    "id": 195,
    "name": "Anderson",
    "lodge_num": 243,
    "lodge_phone": "",
    "meeting_times": "1st & 3rd Tue, 8:00 pm; 1st Tue only Jun, July & Aug",
    "address": "710 South Marcus St",
    "address2": "",
    "city": "Wrightsville",
    "state": "GA",
    "zip": "31096",
    "lat": 32.720988,
    "lng": -82.7192048,
    "charter_date": "10/30/1890"
  },
  {
    "id": 194,
    "name": "Lavonia",
    "lodge_num": 241,
    "lodge_phone": "",
    "meeting_times": "2nd & 4th Tuesday ~~ 7:30 pm",
    "address": "5744 Vickery St",
    "address2": "",
    "city": "Lavonia",
    "state": "GA",
    "zip": "30553",
    "lat": 34.4364989,
    "lng": -83.1052125,
    "charter_date": "10/30/1890"
  },
  {
    "id": 193,
    "name": "Gordon",
    "lodge_num": 240,
    "lodge_phone": "478-952-6207",
    "meeting_times": "1st and 3rd Tue, 7:30 pm, 1st Tue only Dec do not meet on Jan. 1 or July 4",
    "address": "164 Milledgeville Rd",
    "address2": "",
    "city": "Gordon",
    "state": "GA",
    "zip": "31031",
    "lat": 32.8871858,
    "lng": -83.3197225,
    "charter_date": "10/31/1876"
  },
  {
    "id": 191,
    "name": "Sholto",
    "lodge_num": 237,
    "lodge_phone": "",
    "meeting_times": "2nd & 4th Tue, 7:30 pm, 2nd Tue only in Dec",
    "address": "218 E, Screven St.",
    "address2": "",
    "city": "Quitman",
    "state": "GA",
    "zip": "31643",
    "lat": 30.7849534,
    "lng": -83.5584605,
    "charter_date": "10/29/1875"
  },
  {
    "id": 190,
    "name": "Alpharetta",
    "lodge_num": 235,
    "lodge_phone": "770-490-6907",
    "meeting_times": "2nd & 4th Tuesday - 7:30 pm, 2nd Tuesday only in October & December",
    "address": "194 Milton Ave",
    "address2": "",
    "city": "Alpharetta",
    "state": "GA",
    "zip": "30009",
    "lat": 34.0752359,
    "lng": -84.300383,
    "charter_date": "10/27/1875"
  },
  {
    "id": 189,
    "name": "Duncan",
    "lodge_num": 234,
    "lodge_phone": "",
    "meeting_times": "2nd & 4th Tue, 7:00 pm, 2nd Tue only Dec",
    "address": "105 South McKinley St",
    "address2": "",
    "city": "Nashville",
    "state": "GA",
    "zip": "31639",
    "lat": 31.2064987,
    "lng": -83.2519077,
    "charter_date": "10/27/1875"
  },
  {
    "id": 188,
    "name": "Ancient Landmark",
    "lodge_num": 231,
    "lodge_phone": "912-665-2332",
    "meeting_times": "1st & 3rd Thu,1st Thu Sep & Dec, 3rd Thu Jul & Aug 7:00 pm",
    "address": "3113 rowland ave.",
    "address2": "",
    "city": "Thunderbolt",
    "state": "GA",
    "zip": "31404",
    "lat": 32.073112,
    "lng": -81.094334,
    "charter_date": "10/29/1874"
  },
  {
    "id": 187,
    "name": "Auburn",
    "lodge_num": 230,
    "lodge_phone": "",
    "meeting_times": "2nd Sat 7:30 pm",
    "address": "64 Autry Rd",
    "address2": "",
    "city": "Auburn",
    "state": "GA",
    "zip": "30011",
    "lat": 34.009877,
    "lng": -83.836507,
    "charter_date": "10/29/1874"
  },
  {
    "id": 186,
    "name": "P. T. Schley",
    "lodge_num": 229,
    "lodge_phone": "",
    "meeting_times": "1st & 3rd Mon, 7:30 pm; None on Legal Holiday",
    "address": "610 Forrester Dr",
    "address2": "",
    "city": "Dawson",
    "state": "GA",
    "zip": "39842",
    "lat": 31.7618675,
    "lng": -84.4386939,
    "charter_date": "10/29/1874"
  },
  {
    "id": 185,
    "name": "Norcross",
    "lodge_num": 228,
    "lodge_phone": "",
    "meeting_times": "1st & 3rd Tue, 7:30 pm, 1st Tue only in Dec",
    "address": "67 S. Peachtree St",
    "address2": "",
    "city": "Norcross",
    "state": "GA",
    "zip": "30071",
    "lat": 33.941376,
    "lng": -84.213191,
    "charter_date": "10/30/1890"
  },
  {
    "id": 184,
    "name": "Altamaha",
    "lodge_num": 227,
    "lodge_phone": "912-271-1461",
    "meeting_times": "2nd & 4th Tuesday, 7:30 PM",
    "address": "589 S. Macon St",
    "address2": "",
    "city": "Ludowici",
    "state": "GA",
    "zip": "31316",
    "lat": 31.7133991,
    "lng": -81.7427317,
    "charter_date": "12/00/1999"
  },
  {
    "id": 183,
    "name": "Cassia",
    "lodge_num": 224,
    "lodge_phone": "",
    "meeting_times": "1st & 3rd Thu, 7:30 pm, 1st Thu only in Dec",
    "address": "1363 Pearson Hwy",
    "address2": "",
    "city": "Homerville",
    "state": "GA",
    "zip": "31634",
    "lat": 31.0490853,
    "lng": -82.7635365,
    "charter_date": "10/30/1873"
  },
  {
    "id": 182,
    "name": "Etowah",
    "lodge_num": 222,
    "lodge_phone": "",
    "meeting_times": "1st & 3rd Tue, 7:30 pm, 1st Tue only in Dec",
    "address": "16 East First St",
    "address2": "",
    "city": "Dawsonville",
    "state": "GA",
    "zip": "30534",
    "lat": 34.420138,
    "lng": -84.117951,
    "charter_date": "10/30/1873"
  },
  {
    "id": 181,
    "name": "Sonora",
    "lodge_num": 221,
    "lodge_phone": "",
    "meeting_times": "1st & 3rd Mon, 7:30 pm, 1st Mon Dec",
    "address": "7423",
    "address2": "",
    "city": "Fairmount",
    "state": "GA",
    "zip": "31907",
    "lat": 32.4847509,
    "lng": -84.8795317,
    "charter_date": "10/30/1873"
  },
  {
    "id": 180,
    "name": "Pickens Star",
    "lodge_num": 220,
    "lodge_phone": "",
    "meeting_times": "2nd & 4th Tue, 7:30 pm, 2nd Tue only in Dec",
    "address": "193 Old Federal Road",
    "address2": "",
    "city": "Jasper",
    "state": "GA",
    "zip": "30143",
    "lat": 34.4733001,
    "lng": -84.4369643,
    "charter_date": "10/31/1872"
  },
  {
    "id": 179,
    "name": "Gainesville",
    "lodge_num": 219,
    "lodge_phone": "770-532-6016",
    "meeting_times": "1st & 3rd Tue, 7:30 pm 1st Tue only Dec, No meeting on Jan 1st",
    "address": "621 Lakeshore Dr, NW",
    "address2": "",
    "city": "Gainesville",
    "state": "GA",
    "zip": "30501",
    "lat": 34.29701,
    "lng": -83.847027,
    "charter_date": "12/31/1872"
  },
  {
    "id": 178,
    "name": "Cochran",
    "lodge_num": 217,
    "lodge_phone": "",
    "meeting_times": "2nd & 4th Mon, 7:00 pm, 2nd Monday only in December",
    "address": "217 Masonic Dr",
    "address2": "",
    "city": "Cochran",
    "state": "GA",
    "zip": "31014",
    "lat": 32.3906726,
    "lng": -83.3481499,
    "charter_date": "11/00/1871"
  },
  {
    "id": 177,
    "name": "Fulton",
    "lodge_num": 216,
    "lodge_phone": "404-320-9300",
    "meeting_times": "1st & 3rd Wed, 7:00 pm, 1st Wed Jun, Jul, Aug & Dec",
    "address": "1690 Peachtree St NW",
    "address2": "",
    "city": "Atlanta",
    "state": "GA",
    "zip": "30309",
    "lat": 33.7998147,
    "lng": -84.3930596,
    "charter_date": "10/27/1870"
  },
  {
    "id": 176,
    "name": "Ocean",
    "lodge_num": 214,
    "lodge_phone": "(912) 230-0717",
    "meeting_times": "2nd & 4th Mon, 8:00 pm, 2nd Mon only Dec",
    "address": "2601 Parkwood Dr",
    "address2": "",
    "city": "Brunswick",
    "state": "GA",
    "zip": "31520",
    "lat": 31.173738,
    "lng": -81.482465,
    "charter_date": "10/29/1868"
  },
  {
    "id": 175,
    "name": "Ogeechee",
    "lodge_num": 213,
    "lodge_phone": "",
    "meeting_times": "1st & 3rd Tue, 7:30 EST, 3rd Tue in Jun, Jul, Aug. 1st Tue in Dec",
    "address": "2 West Cherry St",
    "address2": "",
    "city": "Statesboro",
    "state": "GA",
    "zip": "30458",
    "lat": 32.4474295,
    "lng": -81.7838487,
    "charter_date": "11/00/1877"
  },
  {
    "id": 174,
    "name": "Flowery Branch",
    "lodge_num": 212,
    "lodge_phone": "",
    "meeting_times": "2nd & 4th Tue 7:30 pm, 2nd Tue only Dec",
    "address": "5416 Spring St",
    "address2": "",
    "city": "Flowery Branch",
    "state": "GA",
    "zip": "30542",
    "lat": 34.188259,
    "lng": -83.925753,
    "charter_date": "10/30/1890"
  },
  {
    "id": 173,
    "name": "Alpine",
    "lodge_num": 211,
    "lodge_phone": "",
    "meeting_times": "2nd & 4th Tue, 7:30 pm, 2nd Tue only Dec",
    "address": "3000 Hwy 337",
    "address2": "",
    "city": "Menlo",
    "state": "GA",
    "zip": "30731",
    "lat": 34.4986255,
    "lng": -85.4673956,
    "charter_date": "11/00/1867"
  },
  {
    "id": 171,
    "name": "Alapaha",
    "lodge_num": 209,
    "lodge_phone": "",
    "meeting_times": "2nd Tue, 7:30 pm",
    "address": "108 Hwy 29 South",
    "address2": "",
    "city": "Statenville",
    "state": "GA",
    "zip": "31636",
    "lat": 30.7021789,
    "lng": -83.1411004,
    "charter_date": "11/00/1866"
  },
  {
    "id": 170,
    "name": "Marble Hill",
    "lodge_num": 207,
    "lodge_phone": "770-893-7184",
    "meeting_times": "2nd & 4th Thurs, 7:30 pm, 2nd Thurs. only in Jun, Nov & Dec, 4th Thurs. only in Jul & Aug",
    "address": "102 McArthur Rd",
    "address2": "",
    "city": "Marble Hill",
    "state": "GA",
    "zip": "30148",
    "lat": 34.424375,
    "lng": -84.329058,
    "charter_date": "10/30/1890"
  },
  {
    "id": 169,
    "name": "Bowdon",
    "lodge_num": 206,
    "lodge_phone": "",
    "meeting_times": "2nd & 4th Mon, 7:30 pm, 2nd Mon only Dec",
    "address": "619 West College St",
    "address2": "",
    "city": "Bowdon",
    "state": "GA",
    "zip": "30108",
    "lat": 33.5371034,
    "lng": -85.2642647,
    "charter_date": "11/00/1866"
  },
  {
    "id": 168,
    "name": "Hickory Flat",
    "lodge_num": 205,
    "lodge_phone": "678-848-1038",
    "meeting_times": "2nd & 4th Mon, 7:30 pm, 2nd Mon only May & Dec",
    "address": "2907 E. Cherokee Dr",
    "address2": "",
    "city": "Canton",
    "state": "GA",
    "zip": "30115",
    "lat": 34.1733496,
    "lng": -84.4236723,
    "charter_date": "10/29/1891"
  },
  {
    "id": 167,
    "name": "A. J. Miller",
    "lodge_num": 204,
    "lodge_phone": "",
    "meeting_times": "1st & 3rd Mon, 8:00 pm, 3rd Mon Jul & Sep, 1st Mon Dec",
    "address": "316 Main St",
    "address2": "",
    "city": "Thomson",
    "state": "GA",
    "zip": "30824",
    "lat": 33.4691835,
    "lng": -82.504081,
    "charter_date": "10/30/1891"
  },
  {
    "id": 166,
    "name": "Tunnel Hill",
    "lodge_num": 202,
    "lodge_phone": "",
    "meeting_times": "1st & 3rd Mon, 7:30 pm, 1st Mon only Dec",
    "address": "240 North Varnell Rd",
    "address2": "",
    "city": "Tunnel Hill",
    "state": "GA",
    "zip": "30755",
    "lat": 34.850685,
    "lng": -85.0423531,
    "charter_date": "10/28/1865"
  },
  {
    "id": 165,
    "name": "Ocoee",
    "lodge_num": 201,
    "lodge_phone": "",
    "meeting_times": "1st & 3rd Tue, 7:30 pm, 1st Tue only Dec",
    "address": "64 By-Pass Rd",
    "address2": "",
    "city": "Morganton",
    "state": "GA",
    "zip": "30560",
    "lat": 34.8736033,
    "lng": -84.2435361,
    "charter_date": "10/30/1895"
  },
  {
    "id": 164,
    "name": "Walton",
    "lodge_num": 200,
    "lodge_phone": "",
    "meeting_times": "1st Thur, 7:30 pm",
    "address": "22581 Hwy 83",
    "address2": "",
    "city": "Shady Dale",
    "state": "GA",
    "zip": "31085",
    "lat": 33.4014559,
    "lng": -83.5887501,
    "charter_date": "10/30/1890"
  },
  {
    "id": 162,
    "name": "Lumber City",
    "lodge_num": 199,
    "lodge_phone": "",
    "meeting_times": "1st & 3rd Mon 7:30 pm ,1st Mon only Dec",
    "address": "209 Church St",
    "address2": "",
    "city": "Lumber City",
    "state": "GA",
    "zip": "31549",
    "lat": 31.9318971,
    "lng": -82.6839293,
    "charter_date": "10/29/1874"
  },
  {
    "id": 161,
    "name": "Millwood",
    "lodge_num": 198,
    "lodge_phone": "",
    "meeting_times": "2nd & 4th Thu, 7:00 pm 2nd Thu only Nov &Dec",
    "address": "279 Fullington Ave",
    "address2": "",
    "city": "Pinehurst",
    "state": "GA",
    "zip": "31070",
    "lat": 32.1957868,
    "lng": -83.7636566,
    "charter_date": "10/28/1864"
  },
  {
    "id": 160,
    "name": "Willacoochee",
    "lodge_num": 197,
    "lodge_phone": "",
    "meeting_times": "2nd & 4th Mon, Oct-Apr 7:00 pm, May-Sep 8:00 pm, 2nd Mon only in Dec",
    "address": "76 West Main St",
    "address2": "",
    "city": "Willacoochee",
    "state": "GA",
    "zip": "31650",
    "lat": 31.3407913,
    "lng": -83.046783,
    "charter_date": "10/27/1870"
  },
  {
    "id": 159,
    "name": "Folkston",
    "lodge_num": 196,
    "lodge_phone": "",
    "meeting_times": "1st & 3rd Tue, 7:30 pm, 1st Tue only in Dec None on Jan 1 or Jul 4",
    "address": "106 South First St",
    "address2": "",
    "city": "Folkston",
    "state": "GA",
    "zip": "31537",
    "lat": 30.8322376,
    "lng": -82.0070497,
    "charter_date": "11/00/1861"
  },
  {
    "id": 158,
    "name": "Holmesville",
    "lodge_num": 195,
    "lodge_phone": "",
    "meeting_times": "2nd & 4th Tue, 7:30 pm EST, 8:00 pm DST, 2nd Tue Dec",
    "address": "307 Tollison St",
    "address2": "",
    "city": "Baxley",
    "state": "GA",
    "zip": "31513",
    "lat": 31.7698658,
    "lng": -82.3550867,
    "charter_date": "10/31/1861"
  },
  {
    "id": 157,
    "name": "Worth",
    "lodge_num": 194,
    "lodge_phone": "229-776-1050",
    "meeting_times": "2nd & 4th Mon, 7:30 pm, 2nd Mon Dec",
    "address": "103 N. Main St",
    "address2": "",
    "city": "Sylvester",
    "state": "GA",
    "zip": "31791",
    "lat": 31.5253166,
    "lng": -83.8356873,
    "charter_date": "10/30/1890"
  },
  {
    "id": 155,
    "name": "Frank C. Folks",
    "lodge_num": 192,
    "lodge_phone": "",
    "meeting_times": "1st & 3rd Tue, 7:30 pm, except National Holidays",
    "address": "502 East Waring St",
    "address2": "",
    "city": "Waycross",
    "state": "GA",
    "zip": "31501",
    "lat": 31.2409679,
    "lng": -82.3640893,
    "charter_date": "12/00/1860"
  },
  {
    "id": 154,
    "name": "Rockwell",
    "lodge_num": 191,
    "lodge_phone": "",
    "meeting_times": "2nd Tue, 7:30 pm",
    "address": "111 Hall St",
    "address2": "",
    "city": "Hoschton",
    "state": "GA",
    "zip": "30548",
    "lat": 34.0949039,
    "lng": -83.7645295,
    "charter_date": "11/00/1860"
  },
  {
    "id": 153,
    "name": "Rochelle",
    "lodge_num": 190,
    "lodge_phone": "",
    "meeting_times": "2nd & 4th Mon 7:30 pm, 2nd Mon only Dec",
    "address": "753 Gordon St",
    "address2": "",
    "city": "Rochelle",
    "state": "GA",
    "zip": "31079",
    "lat": 31.9439133,
    "lng": -83.4547631,
    "charter_date": "10/28/1859"
  },
  {
    "id": 152,
    "name": "Marshall",
    "lodge_num": 188,
    "lodge_phone": "",
    "meeting_times": "3rd Thu, 7:00 pm",
    "address": "2936 Riverside Dr",
    "address2": "",
    "city": "Preston",
    "state": "GA",
    "zip": "37404",
    "lat": 35.0480882,
    "lng": -85.2773155,
    "charter_date": "10/28/1859"
  },
  {
    "id": 151,
    "name": "Carnesville",
    "lodge_num": 186,
    "lodge_phone": "",
    "meeting_times": "1st & 3rd Thu, 7:30 pm",
    "address": "7130 Stone Bridge Road",
    "address2": "",
    "city": "Carnesville",
    "state": "GA",
    "zip": "30521",
    "lat": 34.3728976,
    "lng": -83.2331451,
    "charter_date": "10/27/1858"
  },
  {
    "id": 150,
    "name": "Cool Spring",
    "lodge_num": 185,
    "lodge_phone": "",
    "meeting_times": "1st & 3rd Mon, 7:30 pm, 1st Mon only Dec",
    "address": "109 RailRd Ave",
    "address2": "",
    "city": "Danville",
    "state": "GA",
    "zip": "31017",
    "lat": 32.602654,
    "lng": -83.241513,
    "charter_date": "10/28/1858"
  },
  {
    "id": 149,
    "name": "St. John the Baptist",
    "lodge_num": 184,
    "lodge_phone": "",
    "meeting_times": "1st & 3rd Thu, 7:30 pm, 1st Thu only in Dec",
    "address": "1650 River St Extension",
    "address2": "",
    "city": "Valdosta",
    "state": "GA",
    "zip": "",
    "lat": 30.8327022,
    "lng": -83.2784851,
    "charter_date": "10/28/1858"
  },
  {
    "id": 148,
    "name": "Dallas",
    "lodge_num": 182,
    "lodge_phone": "",
    "meeting_times": "2nd & 4th Thu, 7:30 pm, 2nd Thu only Nov & Dec",
    "address": "116 Main St",
    "address2": "",
    "city": "Dallas",
    "state": "GA",
    "zip": "30132",
    "lat": 33.9240429,
    "lng": -84.8409718,
    "charter_date": "10/28/1858"
  },
  {
    "id": 145,
    "name": "Trenton",
    "lodge_num": 179,
    "lodge_phone": "",
    "meeting_times": "2nd & 4th Sat, 6:30 pm, 2nd Sat only Nov & Dec",
    "address": "34 Bond St",
    "address2": "",
    "city": "Trenton",
    "state": "GA",
    "zip": "30752",
    "lat": 34.875519,
    "lng": -85.506211,
    "charter_date": "10/30/1857"
  },
  {
    "id": 144,
    "name": "Philologia",
    "lodge_num": 178,
    "lodge_phone": "",
    "meeting_times": "2nd & 4th Mon, 7:30 pm, 2nd Mon only May & Dec",
    "address": "1005 Milstead Ave",
    "address2": "",
    "city": "Conyers",
    "state": "GA",
    "zip": "30012",
    "lat": 33.669841,
    "lng": -84.0158299,
    "charter_date": "10/29/1874"
  },
  {
    "id": 143,
    "name": "Acworth",
    "lodge_num": 176,
    "lodge_phone": "770-974-3577",
    "meeting_times": "2nd & 4th Tue, 7:30 pm, 2nd Tue only Dec",
    "address": "4497 McClain Circle",
    "address2": "",
    "city": "Acworth",
    "state": "GA",
    "zip": "30101",
    "lat": 34.0659329,
    "lng": -84.6768796,
    "charter_date": "10/30/1857"
  },
  {
    "id": 142,
    "name": "Redwine",
    "lodge_num": 174,
    "lodge_phone": "",
    "meeting_times": "1st & 3rd Mon, 7:30 pm 1st Mon only in Dec, 3rd Mon only in Jul & Aug.",
    "address": "345 Old Federal Rd",
    "address2": "",
    "city": "Ballground",
    "state": "GA",
    "zip": "30107",
    "lat": 34.3301802,
    "lng": -84.2616242,
    "charter_date": "10/27/1880"
  },
  {
    "id": 141,
    "name": "Cross",
    "lodge_num": 173,
    "lodge_phone": "",
    "meeting_times": "2nd & 4th Mon, 7:30 pm, 2nd Mon only Dec",
    "address": "560 Martin Luther King, Jr. Dr",
    "address2": "",
    "city": "Lumpkin",
    "state": "GA",
    "zip": "31815",
    "lat": 32.0449786,
    "lng": -84.7921708,
    "charter_date": "10/30/1890"
  },
  {
    "id": 140,
    "name": "Mableton",
    "lodge_num": 171,
    "lodge_phone": "",
    "meeting_times": "2nd & 4th Thu, 7:30 pm, 2nd Thu only Nov & Dec",
    "address": "90 Veterans Memorial Highway",
    "address2": "",
    "city": "Mableton",
    "state": "GA",
    "zip": "30126",
    "lat": 33.8116511,
    "lng": -84.5574978,
    "charter_date": "10/30/1857"
  },
  {
    "id": 138,
    "name": "Floyd Springs",
    "lodge_num": 167,
    "lodge_phone": "no phone at lodge hall refer to cell no#'s of members/secretary/ 706-766-7210",
    "meeting_times": "1st & 3rd Thu, 7:30 pm, 1st Thu only in Dec.",
    "address": "7596 Martha Berry Hwy",
    "address2": "",
    "city": "Armuchee",
    "state": "GA",
    "zip": "30105",
    "lat": 34.3919711,
    "lng": -85.1889476,
    "charter_date": "10/30/1856"
  },
  {
    "id": 137,
    "name": "Webb",
    "lodge_num": 166,
    "lodge_phone": "706-829-1665",
    "meeting_times": "3rd Mon, 8:00 pm",
    "address": "3201 Wrightsboro Rd",
    "address2": "",
    "city": "Augusta",
    "state": "GA",
    "zip": "30909",
    "lat": 33.4698312,
    "lng": -82.0610128,
    "charter_date": "10/30/1856"
  },
  {
    "id": 136,
    "name": "Roswell",
    "lodge_num": 165,
    "lodge_phone": "770-205-4207",
    "meeting_times": "1st & 3rd Thu, 7:30 pm, 1st Thu only Jun, Jul & Aug",
    "address": "1054 Alpharetta St",
    "address2": "",
    "city": "Roswell",
    "state": "GA",
    "zip": "30075",
    "lat": 34.0268289,
    "lng": -84.35968,
    "charter_date": "10/31/1856"
  },
  {
    "id": 134,
    "name": "Trion",
    "lodge_num": 160,
    "lodge_phone": "",
    "meeting_times": "2nd & 4th Mon, 7:30 pm 2nd Mon only Dec",
    "address": "75 Seventh St",
    "address2": "",
    "city": "Trion",
    "state": "GA",
    "zip": "30753",
    "lat": 34.5482068,
    "lng": -85.3054132,
    "charter_date": "10/31/1889"
  },
  {
    "id": 133,
    "name": "Lexington",
    "lodge_num": 158,
    "lodge_phone": "706-424-3783",
    "meeting_times": "1st Tue, 7:30 pm",
    "address": "860 Athens Road",
    "address2": "",
    "city": "Lexington",
    "state": "GA",
    "zip": "30630",
    "lat": 33.888986,
    "lng": -83.13257,
    "charter_date": "10/31/1855"
  },
  {
    "id": 132,
    "name": "Oothcaloga",
    "lodge_num": 154,
    "lodge_phone": "",
    "meeting_times": "1st & 3rd Tue, 7:30 pm, 3rd Tue Jul, 1st Tue Dec",
    "address": "900 Oothcaloga St",
    "address2": "",
    "city": "Calhoun",
    "state": "GA",
    "zip": "30701",
    "lat": 34.4969698,
    "lng": -84.9637806,
    "charter_date": "11/00/1854"
  },
  {
    "id": 131,
    "name": "Springville",
    "lodge_num": 153,
    "lodge_phone": "",
    "meeting_times": "2nd & 4th Tue, 7:30 pm, 2nd Tue only in Dec",
    "address": "4033 Austell Powder Springs Rd",
    "address2": "",
    "city": "Powder Springs",
    "state": "GA",
    "zip": "30127",
    "lat": 33.8427457,
    "lng": -84.6627747,
    "charter_date": "10/31/1889"
  },
  {
    "id": 880,
    "name": "Doerun",
    "lodge_num": 151,
    "lodge_phone": "",
    "meeting_times": "1st & 3rd Thu, 7:30 pm except Christmas, New Years & 4th of Jul",
    "address": "805 North Jones St",
    "address2": "",
    "city": "Doerun",
    "state": "GA",
    "zip": "31744",
    "lat": 31.3240757,
    "lng": -83.909949,
    "charter_date": "11/00/1854"
  },
  {
    "id": 129,
    "name": "Irwinton",
    "lodge_num": 150,
    "lodge_phone": "",
    "meeting_times": "2nd Thu,7:30 pm",
    "address": "103-B Bacon St",
    "address2": "",
    "city": "Irwinton",
    "state": "GA",
    "zip": "31042",
    "lat": 32.8109466,
    "lng": -83.1736227,
    "charter_date": "11/00/1854"
  },
  {
    "id": 128,
    "name": "Phi Delta",
    "lodge_num": 148,
    "lodge_phone": "",
    "meeting_times": "2nd & 4th Thur, 7:30 pm, No meeting on Holiday",
    "address": "1315 Historic",
    "address2": "",
    "city": "Homer",
    "state": "GA",
    "zip": "30547",
    "lat": 34.3578253,
    "lng": -83.476563,
    "charter_date": "10/26/1853"
  },
  {
    "id": 127,
    "name": "Midland",
    "lodge_num": 144,
    "lodge_phone": "",
    "meeting_times": "1st & 3rd Thu, 7:00 pm, 1st Thu only in Dec.No meeting on legal holiday",
    "address": "PO Box 144",
    "address2": "",
    "city": "Midland",
    "state": "GA",
    "zip": "31820-0144",
    "lat": 32.575299,
    "lng": -84.827859,
    "charter_date": "10/29/1853"
  },
  {
    "id": 126,
    "name": "Mount Airy",
    "lodge_num": 141,
    "lodge_phone": "706-499-1641",
    "meeting_times": "1st & 3rd Tue, 7:30 pm",
    "address": "1130 Dicks Hill Parkway",
    "address2": "",
    "city": "Mt. Airy",
    "state": "GA",
    "zip": "30563",
    "lat": 34.516908,
    "lng": -83.4981193,
    "charter_date": "10/31/1889"
  },
  {
    "id": 125,
    "name": "Bartlett",
    "lodge_num": 139,
    "lodge_phone": "",
    "meeting_times": "1st & 3rd Sat, 7:30 pm, 1st Sat only Dec No meeting on a National Holiday",
    "address": "140-B Main St",
    "address2": "",
    "city": "Hiram",
    "state": "GA",
    "zip": "30141",
    "lat": 33.8747877,
    "lng": -84.7614751,
    "charter_date": "10/27/1852"
  },
  {
    "id": 123,
    "name": "Live Oak",
    "lodge_num": 137,
    "lodge_phone": "",
    "meeting_times": "1st & 3rd Thu, 1st Thu only in Dec; 8:00 pm",
    "address": "305 Fort King George Dr",
    "address2": "",
    "city": "Darien",
    "state": "GA",
    "zip": "31305",
    "lat": 31.3676144,
    "lng": -81.4335687,
    "charter_date": "10/27/1852"
  },
  {
    "id": 122,
    "name": "Fergus",
    "lodge_num": 135,
    "lodge_phone": "",
    "meeting_times": "1st & 3rd Thu, 7:30 pm",
    "address": "166 Rock St",
    "address2": "",
    "city": "Loganville",
    "state": "GA",
    "zip": "30052",
    "lat": 33.8449071,
    "lng": -83.900405,
    "charter_date": "10/28/1858"
  },
  {
    "id": 121,
    "name": "Ocilla",
    "lodge_num": 134,
    "lodge_phone": "",
    "meeting_times": "1st & 3rd Mon, Nov-Feb 7:30 pm, March-Oct 8:00 pm",
    "address": "701 South Irwin Ave",
    "address2": "",
    "city": "Ocilla",
    "state": "GA",
    "zip": "31774",
    "lat": 31.5890129,
    "lng": -83.2506837,
    "charter_date": "10/28/1869"
  },
  {
    "id": 119,
    "name": "A. M. Wolihin",
    "lodge_num": 132,
    "lodge_phone": "",
    "meeting_times": "1st Tue, 7:30 pm",
    "address": "132 Park St N.E.",
    "address2": "",
    "city": "Crawfordville",
    "state": "GA",
    "zip": "30631",
    "lat": 33.5568261,
    "lng": -82.8953532,
    "charter_date": "10/30/1851"
  },
  {
    "id": 118,
    "name": "Lawrenceville",
    "lodge_num": 131,
    "lodge_phone": "",
    "meeting_times": "1st & 3rd Tue, 7:30 pm, 1st Tue only in Dec",
    "address": "465 South Perry St",
    "address2": "",
    "city": "Lawrenceville",
    "state": "GA",
    "zip": "30046",
    "lat": 33.9522583,
    "lng": -83.989146,
    "charter_date": "10/30/1851"
  },
  {
    "id": 116,
    "name": "Fickling",
    "lodge_num": 129,
    "lodge_phone": "",
    "meeting_times": "1st & 3rd Thu, 7:30 pm",
    "address": "20 West Main St",
    "address2": "",
    "city": "Butler",
    "state": "GA",
    "zip": "31006",
    "lat": 32.5580109,
    "lng": -84.2404617,
    "charter_date": "10/29/1868"
  },
  {
    "id": 115,
    "name": "Camilla",
    "lodge_num": 128,
    "lodge_phone": "2293280845",
    "meeting_times": "3rd Thu, 7:30 pm",
    "address": "10 Legion Dr",
    "address2": "",
    "city": "Camilla",
    "state": "GA",
    "zip": "31730",
    "lat": 31.2175774,
    "lng": -84.2043367,
    "charter_date": "10/30/1851"
  },
  {
    "id": 114,
    "name": "Ancient York",
    "lodge_num": 127,
    "lodge_phone": "",
    "meeting_times": "2nd & 4th Mon, 7:30 pm, Dec, 2nd Sat 7:00",
    "address": "320 Keys Ferry Rd",
    "address2": "",
    "city": "Jackson",
    "state": "GA",
    "zip": "30233",
    "lat": 33.3874686,
    "lng": -83.9196083,
    "charter_date": "10/29/1851"
  },
  {
    "id": 113,
    "name": "Tallapoosa",
    "lodge_num": 126,
    "lodge_phone": "",
    "meeting_times": "1st & 3rd Thu, 7:30 pm",
    "address": "2599 U.S. Hwy 78",
    "address2": "",
    "city": "Tallapoosa",
    "state": "GA",
    "zip": "30176",
    "lat": 33.7406832,
    "lng": -85.3110659,
    "charter_date": "10/31/1889"
  },
  {
    "id": 112,
    "name": "Daylite",
    "lodge_num": 125,
    "lodge_phone": "",
    "meeting_times": "3rd Wed, 10:30 a.m.",
    "address": "201 Masonic Pl.",
    "address2": "",
    "city": "Peachtree City",
    "state": "GA",
    "zip": "30269",
    "lat": 33.619714,
    "lng": -84.360448,
    "charter_date": "10/31/1889"
  },
  {
    "id": 111,
    "name": "Sandy Springs",
    "lodge_num": 124,
    "lodge_phone": "404-963-7618",
    "meeting_times": "2nd & 4th Tue, 7:30 pm, 2nd Tue only Dec",
    "address": "6700 Vernon Woods Dr NE",
    "address2": "",
    "city": "Sandy Spring",
    "state": "GA",
    "zip": "30328",
    "lat": 33.92732,
    "lng": -84.383712,
    "charter_date": "10/31/1850"
  },
  {
    "id": 110,
    "name": "Caledonia",
    "lodge_num": 121,
    "lodge_phone": "",
    "meeting_times": "1st & 3rd Tue, 7:30 pm",
    "address": "948 North Main St",
    "address2": "",
    "city": "Cedartown",
    "state": "GA",
    "zip": "30125",
    "lat": 34.0316636,
    "lng": -85.2463227,
    "charter_date": "10/29/1947"
  },
  {
    "id": 109,
    "name": "Mackey",
    "lodge_num": 120,
    "lodge_phone": "",
    "meeting_times": "1st & 3rd Mon, 7:30 pm, 1st Mon only in Dec.",
    "address": "25 Craven St",
    "address2": "",
    "city": "Cave Spring",
    "state": "GA",
    "zip": "30124",
    "lat": 34.1039526,
    "lng": -85.3389439,
    "charter_date": "10/29/1947"
  },
  {
    "id": 107,
    "name": "Richard T. Turner",
    "lodge_num": 116,
    "lodge_phone": "912-963-1802",
    "meeting_times": "2nd & 4th Fri, 7:30 pm, 2nd Fri Jun, Jul, Aug, Nov & Dec",
    "address": "705 Bloomingdale Rd",
    "address2": "",
    "city": "Bloomingdale",
    "state": "GA",
    "zip": "31302",
    "lat": 32.1156344,
    "lng": -81.3156265,
    "charter_date": "10/30/1850"
  },
  {
    "id": 106,
    "name": "Walter C. Dancer",
    "lodge_num": 115,
    "lodge_phone": "",
    "meeting_times": "1st Tue, 7:30 pm",
    "address": "402 West Crawford St",
    "address2": "",
    "city": "Colquitt",
    "state": "GA",
    "zip": "39837",
    "lat": 31.1718851,
    "lng": -84.73962,
    "charter_date": "11/00/1888"
  },
  {
    "id": 105,
    "name": "Allegheny",
    "lodge_num": 114,
    "lodge_phone": "706-897-0137",
    "meeting_times": "1st & 3rd Mon, 7;30 pm, 1st Mon only in Dec",
    "address": "71 Rogers St",
    "address2": "",
    "city": "Blairsville",
    "state": "GA",
    "zip": "30512",
    "lat": 34.875299,
    "lng": -83.958721,
    "charter_date": "10/30/1850"
  },
  {
    "id": 104,
    "name": "Oostanaula",
    "lodge_num": 113,
    "lodge_phone": "706-802-9045",
    "meeting_times": "2nd & 4th Tue, 7:30 pm, 2nd Tue only Dec",
    "address": "2008 N. Broad St",
    "address2": "",
    "city": "Rome",
    "state": "GA",
    "zip": "Send mail to PO Box 1892",
    "lat": 34.2720173,
    "lng": -85.1515608,
    "charter_date": "11/00/1888"
  },
  {
    "id": 103,
    "name": "Jesup",
    "lodge_num": 112,
    "lodge_phone": "",
    "meeting_times": "1st & 3rd Mon, 8:00 pm, 1st Mon only Dec If 1st Mon falls None on legal holiday",
    "address": "865 W. Orange St",
    "address2": "",
    "city": "Jesup",
    "state": "GA",
    "zip": "31545",
    "lat": 31.6100288,
    "lng": -81.8936275,
    "charter_date": "10/29/1929"
  },
  {
    "id": 102,
    "name": "Tyrian",
    "lodge_num": 111,
    "lodge_phone": "",
    "meeting_times": "2nd & 4th Tue, 7:30 pm, 2nd Tue only Oct & Dec",
    "address": "650 Tallulah Trail",
    "address2": "",
    "city": "Warner Robins",
    "state": "GA",
    "zip": "31088",
    "lat": 32.5908779,
    "lng": -83.633237,
    "charter_date": "10/29/1947"
  },
  {
    "id": 101,
    "name": "Fort Valley",
    "lodge_num": 110,
    "lodge_phone": "478-293-9839",
    "meeting_times": "2nd & 4th Tue, 7:30 pm, 2nd Tue only in Oct & Dec",
    "address": "100-1/2 West Church St",
    "address2": "",
    "city": "Fort Valley",
    "state": "GA",
    "zip": "31030",
    "lat": 32.553964,
    "lng": -83.8866271,
    "charter_date": "10/30/1850"
  },
  {
    "id": 100,
    "name": "St. Marys",
    "lodge_num": 109,
    "lodge_phone": "(912) 674-4343",
    "meeting_times": "1st & 3rd Thu, 7:30 pm",
    "address": "203 Wheeler St",
    "address2": "",
    "city": "St.Marys",
    "state": "GA",
    "zip": "31558",
    "lat": 30.722724,
    "lng": -81.55018,
    "charter_date": "10/30/1850"
  },
  {
    "id": 99,
    "name": "Gordon",
    "lodge_num": 108,
    "lodge_phone": "",
    "meeting_times": "2nd & 4th Thu, 7:30 pm, 2nd Thu Nov & Dec.",
    "address": "7540 GA Hwy 208",
    "address2": "",
    "city": "Waverly Hall",
    "state": "GA",
    "zip": "31831",
    "lat": 32.6860469,
    "lng": -84.7374605,
    "charter_date": "10/30/1850"
  },
  {
    "id": 97,
    "name": "Quitman",
    "lodge_num": 106,
    "lodge_phone": "",
    "meeting_times": "lst & 3rd Thu 7:30 pm",
    "address": "28 West St",
    "address2": "",
    "city": "Ringgold",
    "state": "GA",
    "zip": "30736",
    "lat": 34.9156896,
    "lng": -85.1115991,
    "charter_date": "10/29/1947"
  },
  {
    "id": 96,
    "name": "Dalton",
    "lodge_num": 105,
    "lodge_phone": "",
    "meeting_times": "2nd & 4th Mon, 7:30 pm, 2nd Mon only Oct & Dec",
    "address": "102 Pentz St",
    "address2": "",
    "city": "Dalton",
    "state": "GA",
    "zip": "30720",
    "lat": 34.7715222,
    "lng": -84.9691768,
    "charter_date": "10/31/1849"
  },
  {
    "id": 95,
    "name": "Ridgeway",
    "lodge_num": 104,
    "lodge_phone": "",
    "meeting_times": "2nd & 4th Mon, 7:30 pm, 2nd Mon only Dec",
    "address": "116 S. RailRd St",
    "address2": "",
    "city": "Garfield",
    "state": "GA",
    "zip": "30425",
    "lat": 32.6443413,
    "lng": -82.0965569,
    "charter_date": "10/28/1849"
  },
  {
    "id": 94,
    "name": "Davidson",
    "lodge_num": 103,
    "lodge_phone": "",
    "meeting_times": "4th Sat, 7:30 pm, 3rd Sat only Dec",
    "address": "200 Pleasant Hill Church Rd",
    "address2": "",
    "city": "Winder",
    "state": "GA",
    "zip": "30680",
    "lat": 34.004562,
    "lng": -83.642419,
    "charter_date": "10/29/1874"
  },
  {
    "id": 93,
    "name": "Chestatee",
    "lodge_num": 102,
    "lodge_phone": "",
    "meeting_times": "2nd & 4th Tue, 7:30 pm, 2nd Tue only Dec",
    "address": "6080",
    "address2": "",
    "city": "Dawsonville",
    "state": "GA",
    "zip": "30534",
    "lat": 34.3427774,
    "lng": -84.117765,
    "charter_date": "10/29/1947"
  },
  {
    "id": 92,
    "name": "Whiteford",
    "lodge_num": 101,
    "lodge_phone": "",
    "meeting_times": "2nd Tue, 7:30 pm",
    "address": "3291 Hwy 126",
    "address2": "",
    "city": "Alamo",
    "state": "GA",
    "zip": "30411",
    "lat": 32.2486928,
    "lng": -82.8805269,
    "charter_date": "10/31/1849"
  },
  {
    "id": 91,
    "name": "Shannon",
    "lodge_num": 100,
    "lodge_phone": "",
    "meeting_times": "2nd & 4th Tue, 7:30 pm, 2nd Tue only Dec",
    "address": "2 Todd St",
    "address2": "",
    "city": "Shannon",
    "state": "GA",
    "zip": "30161",
    "lat": 34.3404193,
    "lng": -85.0688302,
    "charter_date": "10/23/1946"
  },
  {
    "id": 90,
    "name": "Snellville",
    "lodge_num": 99,
    "lodge_phone": "7705960311",
    "meeting_times": "1st & 3rd Mon, 7:30 pm, 1st Mon only in Dec. None on Holidays",
    "address": "2785 Lenora Church Road",
    "address2": "",
    "city": "Snellville",
    "state": "GA",
    "zip": "30078",
    "lat": 33.842956,
    "lng": -84.013653,
    "charter_date": "10/23/1946"
  },
  {
    "id": 89,
    "name": "Stonewall",
    "lodge_num": 98,
    "lodge_phone": "",
    "meeting_times": "1st and 3rd Mon, 7:30 pm",
    "address": "316 E. BRd St",
    "address2": "",
    "city": "Louisville",
    "state": "GA",
    "zip": "30434",
    "lat": 32.9976243,
    "lng": -82.4068453,
    "charter_date": "10/27/1870"
  },
  {
    "id": 88,
    "name": "Rockmart",
    "lodge_num": 97,
    "lodge_phone": "678=699-7152",
    "meeting_times": "1st & 3rd Thu, 7:30 pm, 1st Thu only in Dec",
    "address": "1204 Piedmont Ave",
    "address2": "",
    "city": "Rockmart",
    "state": "GA",
    "zip": "30153",
    "lat": 34.0103058,
    "lng": -85.0438434,
    "charter_date": "10/31/1849"
  },
  {
    "id": 86,
    "name": "Hogansville",
    "lodge_num": 93,
    "lodge_phone": "",
    "meeting_times": "2nd & 4th Mon, 7:30 pm, 2nd Mon only in May & Dec",
    "address": "51 Commerce St",
    "address2": "",
    "city": "Hogansville",
    "state": "GA",
    "zip": "30230",
    "lat": 33.1735165,
    "lng": -84.9126459,
    "charter_date": "10/31/1878"
  },
  {
    "id": 85,
    "name": "Cornelia",
    "lodge_num": 92,
    "lodge_phone": "706 968 1818",
    "meeting_times": "2nd & 4th Mon, 7:30 pm, 2nd Mon only May and Dec",
    "address": "540 Level Grove Rd",
    "address2": "",
    "city": "Cornelia",
    "state": "GA",
    "zip": "30531",
    "lat": 34.5112482,
    "lng": -83.5371195,
    "charter_date": "11/00/1888"
  },
  {
    "id": 84,
    "name": "Western",
    "lodge_num": 91,
    "lodge_phone": "",
    "meeting_times": "2nd Thu, 7:30 pm",
    "address": "200 North Duke St",
    "address2": "",
    "city": "Lafayette",
    "state": "GA",
    "zip": "30728",
    "lat": 34.7067096,
    "lng": -85.2804245,
    "charter_date": "10/23/1946"
  },
  {
    "id": 83,
    "name": "Ringgold",
    "lodge_num": 90,
    "lodge_phone": "",
    "meeting_times": "2nd & 4th Thu, 7:30 pm, 2nd Thu only Nov & Dec",
    "address": "4337 Jackson Rd",
    "address2": "",
    "city": "Griffin",
    "state": "GA",
    "zip": "30223",
    "lat": 33.28614,
    "lng": -84.162353,
    "charter_date": "10/24/1945"
  },
  {
    "id": 82,
    "name": "Pinta",
    "lodge_num": 88,
    "lodge_phone": "",
    "meeting_times": "1st & 3rd Tue, 7:30 pm, 1st Tue only Dec",
    "address": "1173 Hwy 18 West",
    "address2": "",
    "city": "Barnesville",
    "state": "GA",
    "zip": "30204",
    "lat": 33.0541161,
    "lng": -84.0769734,
    "charter_date": "10/29/1874"
  },
  {
    "id": 81,
    "name": "Jonesboro",
    "lodge_num": 87,
    "lodge_phone": "",
    "meeting_times": "2nd & 4th Tue, 7:30 pm, 2nd Tue only in Oct & Dec",
    "address": "142 North McDonough St",
    "address2": "",
    "city": "Jonesboro",
    "state": "GA",
    "zip": "30236",
    "lat": 33.522836,
    "lng": -84.353622,
    "charter_date": "11/28/1869"
  },
  {
    "id": 80,
    "name": "Magnolia",
    "lodge_num": 86,
    "lodge_phone": "",
    "meeting_times": "3rd Mon, 8:00 pm DST 7:00 pm Standard",
    "address": "15160 RIver Street",
    "address2": "",
    "city": "Blakely",
    "state": "GA",
    "zip": "39823",
    "lat": 31.3776831,
    "lng": -84.9361774,
    "charter_date": "10/31/1849"
  },
  {
    "id": 79,
    "name": "Smith",
    "lodge_num": 85,
    "lodge_phone": "",
    "meeting_times": "1st Thu each Month, 7:00 pm",
    "address": "207 BRd St",
    "address2": "",
    "city": "Richland",
    "state": "GA",
    "zip": "31825",
    "lat": 32.0897432,
    "lng": -84.6655474,
    "charter_date": "10/31/1849"
  },
  {
    "id": 77,
    "name": "Seminole",
    "lodge_num": 83,
    "lodge_phone": "",
    "meeting_times": "2nd & 4th Mon Oct-April - 4th Mon May - Sept 2nd Mon Dec - DST 8:00 pm, EST 7:00 pm",
    "address": "500 South Tinnelle Ave",
    "address2": "",
    "city": "Donalsonville",
    "state": "GA",
    "zip": "39845",
    "lat": 31.037454,
    "lng": -84.8793336,
    "charter_date": "10/31/1849"
  },
  {
    "id": 76,
    "name": "Senoia",
    "lodge_num": 82,
    "lodge_phone": "18503567404",
    "meeting_times": "2nd & 4th Thu, 7:30pm, No Meeting 2nd Thur in Nov & Dec",
    "address": "19 Main St",
    "address2": "",
    "city": "Senoia",
    "state": "GA",
    "zip": "30276",
    "lat": 33.3009293,
    "lng": -84.5540934,
    "charter_date": "10/31/1849"
  },
  {
    "id": 75,
    "name": "Oak Bowery",
    "lodge_num": 81,
    "lodge_phone": "",
    "meeting_times": "1st Tue & 3rd Fri, 7:30 pm, 1st Tues in Dec",
    "address": "102 Shrine Club Dr",
    "address2": "",
    "city": "Ellijay",
    "state": "GA",
    "zip": "30540",
    "lat": 34.7005787,
    "lng": -84.4802752,
    "charter_date": "10/31/1849"
  },
  {
    "id": 74,
    "name": "Primrose",
    "lodge_num": 79,
    "lodge_phone": "",
    "meeting_times": "1st Thu, 7:30 pm",
    "address": "225 West RailRd St",
    "address2": "",
    "city": "Bowman",
    "state": "GA",
    "zip": "30624",
    "lat": 34.2089464,
    "lng": -83.0341252,
    "charter_date": "10/24/1945"
  },
  {
    "id": 73,
    "name": "Buchanan",
    "lodge_num": 78,
    "lodge_phone": "",
    "meeting_times": "1st & 3rd Thu, 7:30 pm, 1st Thu Nov, 3rd Thu Jul",
    "address": "43 Tallapoosa St",
    "address2": "",
    "city": "Buchanan",
    "state": "GA",
    "zip": "30113",
    "lat": 33.8013818,
    "lng": -85.1917165,
    "charter_date": "10/31/1849"
  },
  {
    "id": 72,
    "name": "Canton",
    "lodge_num": 77,
    "lodge_phone": "",
    "meeting_times": "1st & 3rd Mon, 7:30 pm, 1st Mon Dec",
    "address": "195 Mashburn Lane",
    "address2": "",
    "city": "Canton",
    "state": "GA",
    "zip": "30114",
    "lat": 34.2489686,
    "lng": -84.4965742,
    "charter_date": "10/24/1945"
  },
  {
    "id": 71,
    "name": "Campbellton",
    "lodge_num": 76,
    "lodge_phone": "",
    "meeting_times": "2nd & 4th Sat, 7:30 pm, 2nd Sat only Dec",
    "address": "100 Church St",
    "address2": "",
    "city": "Campbellton",
    "state": "GA",
    "zip": "30213",
    "lat": 33.6515294,
    "lng": -84.6703675,
    "charter_date": "10/24/1945"
  },
  {
    "id": 70,
    "name": "Laurens",
    "lodge_num": 75,
    "lodge_phone": "",
    "meeting_times": "1st & 3rd Tue, 7:30 pm",
    "address": "502 Academy Ave",
    "address2": "",
    "city": "Dublin",
    "state": "GA",
    "zip": "31021",
    "lat": 32.537437,
    "lng": -82.9095739,
    "charter_date": "10/31/1849"
  },
  {
    "id": 69,
    "name": "Palmetto",
    "lodge_num": 74,
    "lodge_phone": "678-673-7730",
    "meeting_times": "1st & 3rd Tue, 7:30 pm, 1st Tue only Dec",
    "address": "504A Park St",
    "address2": "",
    "city": "Palmetto",
    "state": "GA",
    "zip": "30268",
    "lat": 33.524748,
    "lng": -84.665639,
    "charter_date": "11/00/1883"
  },
  {
    "id": 68,
    "name": "Philadelphia",
    "lodge_num": 73,
    "lodge_phone": "",
    "meeting_times": "2nd & 4th Mon, 7:30 pm, 2nd Mon only Dec",
    "address": "112 South Caswell St",
    "address2": "",
    "city": "Glennville",
    "state": "GA",
    "zip": "30427",
    "lat": 31.9353477,
    "lng": -81.927797,
    "charter_date": "10/31/1878"
  },
  {
    "id": 67,
    "name": "Villa Rica",
    "lodge_num": 72,
    "lodge_phone": "",
    "meeting_times": "2nd & 4th Mon, 7:30 pm, 2nd Mon only Dec",
    "address": "110 Main St",
    "address2": "",
    "city": "Villa Rica",
    "state": "GA",
    "zip": "30180",
    "lat": 33.7318393,
    "lng": -84.9186176,
    "charter_date": "11/00/1848"
  },
  {
    "id": 66,
    "name": "Goshen",
    "lodge_num": 71,
    "lodge_phone": "770.854.4534",
    "meeting_times": "1st & 3rd Thu, 7:30 pm, 1st Thu only Dec",
    "address": "141 Old US 27",
    "address2": "",
    "city": "Roopville",
    "state": "GA",
    "zip": "30170",
    "lat": 32.8317308,
    "lng": -84.8436316,
    "charter_date": "11/00/1848"
  },
  {
    "id": 65,
    "name": "Hampton",
    "lodge_num": 70,
    "lodge_phone": "770-477-8187",
    "meeting_times": "1st & 3rd Mon, 7:30 pm, 1st Mon only in Dec.",
    "address": "34 McDonough St",
    "address2": "PO Box 1941",
    "city": "Hampton",
    "state": "GA",
    "zip": "30228",
    "lat": 33.3842703,
    "lng": -84.2781858,
    "charter_date": "11/00/1848"
  },
  {
    "id": 64,
    "name": "Carroll",
    "lodge_num": 69,
    "lodge_phone": "",
    "meeting_times": "1st & 3rd Tue, 7:30 pm If holiday on Mtg.-None 1st Tue-Mtg will be on 3rd Tue only - 1st Tue only in Dec.",
    "address": "207 Tanner St",
    "address2": "",
    "city": "Carrollton",
    "state": "GA",
    "zip": "30117",
    "lat": 33.5787849,
    "lng": -85.0739318,
    "charter_date": "11/00/1848"
  },
  {
    "id": 63,
    "name": "Dawson",
    "lodge_num": 68,
    "lodge_phone": "",
    "meeting_times": "2nd & 4th Tue, 7:30 pm, 2nd Tue only Dec",
    "address": "660 Ashley Dr",
    "address2": "",
    "city": "Social Circle",
    "state": "GA",
    "zip": "30025",
    "lat": 33.6549179,
    "lng": -83.7061873,
    "charter_date": "10/27/1887"
  },
  {
    "id": 62,
    "name": "Blue Ridge",
    "lodge_num": 67,
    "lodge_phone": "",
    "meeting_times": "2nd & 4th Fri, 7:30 pm, 2nd Fri only Dec",
    "address": "4600 Old Hwy 5",
    "address2": "",
    "city": "Blue Ridge",
    "state": "GA",
    "zip": "30513",
    "lat": 34.8991671,
    "lng": -84.3668663,
    "charter_date": "11/00/1848"
  },
  {
    "id": 61,
    "name": "Cherokee",
    "lodge_num": 66,
    "lodge_phone": "770-547-7231",
    "meeting_times": "1st & 3rd Tue, 7:30 pm, 1st Tue only in Dec.",
    "address": "2934 Alabama Hwy",
    "address2": "",
    "city": "Rome",
    "state": "GA",
    "zip": "30165",
    "lat": 34.2710699,
    "lng": -85.2584215,
    "charter_date": "11/00/1877"
  },
  {
    "id": 60,
    "name": "Travelers Rest",
    "lodge_num": 65,
    "lodge_phone": "",
    "meeting_times": "2nd Mon, 7:30 pm",
    "address": "103 Cabot St",
    "address2": "",
    "city": "Montezuma",
    "state": "GA",
    "zip": "31063",
    "lat": 32.300286,
    "lng": -84.0294778,
    "charter_date": "10/23/1946"
  },
  {
    "id": 59,
    "name": "Cohutta",
    "lodge_num": 64,
    "lodge_phone": "",
    "meeting_times": "1st & 3rd Thu, 7:30 pm, 3rd Thu only July & 1st Thu only Dec",
    "address": "5118 Red Clay Rd",
    "address2": "",
    "city": "Cohutta",
    "state": "GA",
    "zip": "30710",
    "lat": 34.9600812,
    "lng": -84.9524995,
    "charter_date": "11/00/1848"
  },
  {
    "id": 58,
    "name": "Cartersville",
    "lodge_num": 63,
    "lodge_phone": "678-488-5082 (Tony)",
    "meeting_times": "1st & 3rd Tue, 7:30 pm, 1st Tue only in Dec.",
    "address": "14 Phillips Dr",
    "address2": "",
    "city": "Cartersville",
    "state": "GA",
    "zip": "30121",
    "lat": 34.1843829,
    "lng": -84.782995,
    "charter_date": "11/00/1848"
  },
  {
    "id": 57,
    "name": "Chattahoochee",
    "lodge_num": 61,
    "lodge_phone": "",
    "meeting_times": "1st Mon, 7:30 pm, 2nd Mon when 1st Mon legal holiday.",
    "address": "12 West Court Square",
    "address2": "",
    "city": "Franklin",
    "state": "GA",
    "zip": "30217",
    "lat": 33.2792252,
    "lng": -85.0998485,
    "charter_date": "11/00/1848"
  },
  {
    "id": 56,
    "name": "Coweta",
    "lodge_num": 60,
    "lodge_phone": "",
    "meeting_times": "2nd & 4th Tue, 7:30 pm, 2nd Tue only in Dec",
    "address": "56 Sewell Rd",
    "address2": "",
    "city": "Newnan",
    "state": "GA",
    "zip": "30263",
    "lat": 33.3596124,
    "lng": -84.7972629,
    "charter_date": "11/14/1848"
  },
  {
    "id": 55,
    "name": "Atlanta-Peachtree",
    "lodge_num": 59,
    "lodge_phone": "770-955-5522",
    "meeting_times": "2nd Thur, 7:30 pm",
    "address": "1690 Peachtree St NW",
    "address2": "",
    "city": "Atlanta",
    "state": "GA",
    "zip": "30309",
    "lat": 33.7998147,
    "lng": -84.3930596,
    "charter_date": "10/30/1888"
  },
  {
    "id": 54,
    "name": "Hamilton",
    "lodge_num": 58,
    "lodge_phone": "4782328721",
    "meeting_times": "1st & 3rd Thurs, 7:00 pm, 1st Thurs only Dec",
    "address": "407 North Hospital Rd",
    "address2": "",
    "city": "Sandersville",
    "state": "GA",
    "zip": "31082",
    "lat": 32.9882517,
    "lng": -82.7994486,
    "charter_date": "10/27/1887"
  },
  {
    "id": 53,
    "name": "Waleska",
    "lodge_num": 57,
    "lodge_phone": "",
    "meeting_times": "2nd & 4th Thu, 7:30 pm, 2nd Thu only Nov & Dec",
    "address": "7101 Reinhardt College Parkway",
    "address2": "",
    "city": "Waleska",
    "state": "GA",
    "zip": "30183",
    "lat": 34.3154836,
    "lng": -84.5512367,
    "charter_date": "10/26/1847"
  },
  {
    "id": 52,
    "name": "Bacon",
    "lodge_num": 56,
    "lodge_phone": "912-632-2897",
    "meeting_times": "2nd & 4th Mon, 7:30 pm, 2nd Mon only Dec",
    "address": "517 W. 11th St",
    "address2": "",
    "city": "Alma",
    "state": "GA",
    "zip": "31510",
    "lat": 31.5426417,
    "lng": -82.4665864,
    "charter_date": "10/26/1847"
  },
  {
    "id": 51,
    "name": "Sumach",
    "lodge_num": 55,
    "lodge_phone": "",
    "meeting_times": "1st & 3rd Sat, 7:00 pm, 1st Sat only Dec",
    "address": "9212 Hwy 225 North",
    "address2": "",
    "city": "Chatsworth",
    "state": "GA",
    "zip": "30705",
    "lat": 34.889471,
    "lng": -84.7990529,
    "charter_date": "12/27/1997"
  },
  {
    "id": 50,
    "name": "Clinton",
    "lodge_num": 54,
    "lodge_phone": "843.812.8124",
    "meeting_times": "2nd & 4th Wed , 7:30 pm, Jun, Jul, Aug, Nov & Dec 2nd Wed. Only",
    "address": "341 Bull St. SW",
    "address2": "",
    "city": "Savannah",
    "state": "GA",
    "zip": "31401",
    "lat": 32.073112,
    "lng": -81.094334,
    "charter_date": "09/00/1821"
  },
  {
    "id": 49,
    "name": "Bigham",
    "lodge_num": 53,
    "lodge_phone": "(770) 301-6017",
    "meeting_times": "1st & 3rd Tue, 7:30 pm, 1st Tue only in Dec",
    "address": "2909 Hwy 29 South",
    "address2": "",
    "city": "Moreland",
    "state": "GA",
    "zip": "30259",
    "lat": 33.3165169,
    "lng": -84.7788091,
    "charter_date": "10/31/1878"
  },
  {
    "id": 48,
    "name": "Royston",
    "lodge_num": 52,
    "lodge_phone": "",
    "meeting_times": "3rd Mon, 7:00 pm",
    "address": "200 Spring St.",
    "address2": "",
    "city": "Royston",
    "state": "GA",
    "zip": "30662",
    "lat": 34.2776666,
    "lng": -83.1119455,
    "charter_date": "10/28/1942"
  },
  {
    "id": 47,
    "name": "Hiram",
    "lodge_num": 51,
    "lodge_phone": "",
    "meeting_times": "3rd Tue, 7:30 pm",
    "address": "139 Flora Hill Rd",
    "address2": "",
    "city": "Danburg",
    "state": "GA",
    "zip": "30668",
    "lat": 33.8684563,
    "lng": -82.6520809,
    "charter_date": "11/00/1882"
  },
  {
    "id": 46,
    "name": "Jasper",
    "lodge_num": 50,
    "lodge_phone": "",
    "meeting_times": "1st Tue, 7:30 pm, 2nd Tue if Holiday falls on 1st",
    "address": "135 S. Warren St.",
    "address2": "",
    "city": "Monticello",
    "state": "GA",
    "zip": "31064",
    "lat": 33.3041125,
    "lng": -83.6837728,
    "charter_date": "10/26/1847"
  },
  {
    "id": 45,
    "name": "Lyons",
    "lodge_num": 49,
    "lodge_phone": "",
    "meeting_times": "2nd & 4th Tue, 7:30 pm, 2nd Tue in Dec only",
    "address": "1 Quint Shrine Rd",
    "address2": "",
    "city": "Lyons",
    "state": "GA",
    "zip": "30436",
    "lat": 32.1897025,
    "lng": -82.3392054,
    "charter_date": "10/29/1887"
  },
  {
    "id": 44,
    "name": "Landrum",
    "lodge_num": 48,
    "lodge_phone": "",
    "meeting_times": "1st & 3rd Fri, 7:30 pm, 3rd Fri only in Jul, Aug & Sep, 1st Fri only in Dec.",
    "address": "341 Bull St. SW",
    "address2": "",
    "city": "Savannah",
    "state": "GA",
    "zip": "31401",
    "lat": 32.073112,
    "lng": -81.094334,
    "charter_date": "10/28/1942"
  },
  {
    "id": 43,
    "name": "Tifton",
    "lodge_num": 47,
    "lodge_phone": "",
    "meeting_times": "1st & 3rd Thu, 7:30 pm",
    "address": "1480 Kennedy Rd",
    "address2": "",
    "city": "Tifton",
    "state": "GA",
    "zip": "31794",
    "lat": 31.4661661,
    "lng": -83.491699,
    "charter_date": "10/28/1846"
  },
  {
    "id": 42,
    "name": "Frank F. Baker",
    "lodge_num": 46,
    "lodge_phone": "",
    "meeting_times": "2nd & 4th Mon, 7:30 pm, 2nd Mon May, Jun, Jul, & Dec",
    "address": "167 Varnedoe Ave",
    "address2": "",
    "city": "Garden City",
    "state": "GA",
    "zip": "31408",
    "lat": 32.114375,
    "lng": -81.1629109,
    "charter_date": "10/28/1846"
  },
  {
    "id": 41,
    "name": "St. Johns",
    "lodge_num": 45,
    "lodge_phone": "",
    "meeting_times": "1st & 3rd Tue, 7:30 pm, 1st Tue only in Dec",
    "address": "1200 West Third St",
    "address2": "",
    "city": "Jackson",
    "state": "GA",
    "zip": "30233",
    "lat": 33.292594,
    "lng": -83.9845199,
    "charter_date": "10/28/1942"
  },
  {
    "id": 40,
    "name": "Lafayette",
    "lodge_num": 44,
    "lodge_phone": "678-873-0984",
    "meeting_times": "1st & 3rd Tue, 7:30 pm, 1st Tue only in Dec",
    "address": "110 Ramey Dr",
    "address2": "",
    "city": "Cumming",
    "state": "GA",
    "zip": "30040",
    "lat": 34.2149085,
    "lng": -84.1436727,
    "charter_date": "11/00/1882"
  },
  {
    "id": 39,
    "name": "West Point",
    "lodge_num": 43,
    "lodge_phone": "",
    "meeting_times": "1st & 3rd Mon, 7:30 pm, 1st Mon only Dec, 3rd Mon only July & Sept",
    "address": "301 E. 9th St",
    "address2": "",
    "city": "West Point",
    "state": "GA",
    "zip": "31833",
    "lat": 32.8765513,
    "lng": -85.1772016,
    "charter_date": "11/00/1883"
  },
  {
    "id": 38,
    "name": "Tucker",
    "lodge_num": 42,
    "lodge_phone": "770-938-6513",
    "meeting_times": "2nd & 4th Mon, 7:30 pm, 2nd Mon only in May & Dec..",
    "address": "2327 Main Street",
    "address2": "",
    "city": "Tucker",
    "state": "GA",
    "zip": "30084",
    "lat": 33.853083,
    "lng": -84.2139648,
    "charter_date": "10/28/1942"
  },
  {
    "id": 37,
    "name": "Pythagoras",
    "lodge_num": 41,
    "lodge_phone": "",
    "meeting_times": "1st & 3rd Thu, 7:30 pm, No meeting 1st Thu in Jan & Jul",
    "address": "108 East Ponce de Leon Ave",
    "address2": "",
    "city": "Decatur",
    "state": "GA",
    "zip": "30030",
    "lat": 33.7757566,
    "lng": -84.2961648,
    "charter_date": "11/00/1860"
  },
  {
    "id": 36,
    "name": "Chipley",
    "lodge_num": 40,
    "lodge_phone": "706 289 0490",
    "meeting_times": "1st Tue Eat 6:30pm Meeting 7:30 pm",
    "address": "114 Broad St.",
    "address2": "",
    "city": "Pine Mountain",
    "state": "GA",
    "zip": "31822",
    "lat": 32.8662161,
    "lng": -84.8542306,
    "charter_date": "11/00/1845"
  },
  {
    "id": 35,
    "name": "Blue Mountain",
    "lodge_num": 38,
    "lodge_phone": "",
    "meeting_times": "2nd & 4th Tue, 7:30 pm, 2nd Tue only in Dec",
    "address": "59-A. E. Main St.",
    "address2": "",
    "city": "Dahlonega",
    "state": "GA",
    "zip": "30533",
    "lat": 34.5336213,
    "lng": -83.9839478,
    "charter_date": "10/29/1940"
  },
  {
    "id": 34,
    "name": "Fraternal",
    "lodge_num": 37,
    "lodge_phone": "7605678357",
    "meeting_times": "1st & 3rd Thu, 7:30 pm, 1st Thu only in Dec",
    "address": "65 Veterans Dr",
    "address2": "",
    "city": "Mcdonough",
    "state": "GA",
    "zip": "30253",
    "lat": 33.4520501,
    "lng": -84.1454008,
    "charter_date": "11/00/1844"
  },
  {
    "id": 33,
    "name": "Unity",
    "lodge_num": 36,
    "lodge_phone": "4042771987",
    "meeting_times": "1st Tue, 7:30 pm",
    "address": "369 Borders St",
    "address2": "",
    "city": "Jefferson",
    "state": "GA",
    "zip": "30549",
    "lat": 34.1143615,
    "lng": -83.579157,
    "charter_date": "11/00/1883"
  },
  {
    "id": 32,
    "name": "Houston",
    "lodge_num": 35,
    "lodge_phone": "",
    "meeting_times": "2nd Mon, 7:00 pm",
    "address": "1057 Jernigan St",
    "address2": "",
    "city": "Perry",
    "state": "GA",
    "zip": "31069",
    "lat": 32.4585509,
    "lng": -83.7347397,
    "charter_date": "11/00/1844"
  },
  {
    "id": 31,
    "name": "San Marino",
    "lodge_num": 34,
    "lodge_phone": "",
    "meeting_times": "1st & 3rd Tue, 7:30 pm,1st Tue only in Dec.",
    "address": "205 E. Greene St.",
    "address2": "",
    "city": "Greensboro",
    "state": "GA",
    "zip": "30642",
    "lat": 33.57671,
    "lng": -83.180494,
    "charter_date": "11/00/1844"
  },
  {
    "id": 30,
    "name": "Kennesaw",
    "lodge_num": 33,
    "lodge_phone": "770-366-5619",
    "meeting_times": "1st & 3rd Tue, 7:30 pm, 1st Tue only Dec",
    "address": "547 Roswell St NE",
    "address2": "",
    "city": "Marietta",
    "state": "GA",
    "zip": "30060",
    "lat": 33.9508909,
    "lng": -84.5363785,
    "charter_date": "11/00/1844"
  },
  {
    "id": 29,
    "name": "Rising Sun",
    "lodge_num": 32,
    "lodge_phone": "912-237-3461",
    "meeting_times": "2nd & 4th Tue, 7:30 pm, 2nd Tue only Dec",
    "address": "134-A Church St",
    "address2": "",
    "city": "Reidsville",
    "state": "GA",
    "zip": "30453",
    "lat": 32.0845798,
    "lng": -82.1161149,
    "charter_date": "11/00/1842"
  },
  {
    "id": 28,
    "name": "Montgomery",
    "lodge_num": 31,
    "lodge_phone": "",
    "meeting_times": "2nd & 4th Mon, 7:30 pm, 2nd Mon only Dec",
    "address": "457 Thomaston St",
    "address2": "",
    "city": "Zebulon",
    "state": "GA",
    "zip": "",
    "lat": 33.0187281,
    "lng": -84.46431,
    "charter_date": "01/00/1844"
  },
  {
    "id": 27,
    "name": "Murrayville",
    "lodge_num": 30,
    "lodge_phone": "",
    "meeting_times": "1st & 3rd Mon, 7:30 pm, 1st Mon only in Dec",
    "address": "5616 Lodge Dr",
    "address2": "",
    "city": "Murrayville",
    "state": "GA",
    "zip": "30564",
    "lat": 34.422298,
    "lng": -83.906914,
    "charter_date": "11/00/1843"
  },
  {
    "id": 26,
    "name": "Union",
    "lodge_num": 28,
    "lodge_phone": "",
    "meeting_times": "1st & 3rd Tue, 7:30 pm, 3rd Tue only in Jul, 1st Tue only in Dec",
    "address": "1211 Hogansville Rd",
    "address2": "",
    "city": "Lagrange",
    "state": "GA",
    "zip": "30241",
    "lat": 33.052547,
    "lng": -85.004404,
    "charter_date": "11/00/1843"
  },
  {
    "id": 25,
    "name": "Morning Star",
    "lodge_num": 27,
    "lodge_phone": "(706)647-9195 leave message (Lodge Phone)",
    "meeting_times": "2nd & 4th Mon, 7:30 pm, 2nd Mon only May, Jun, Jul, Aug, Nov & Dec.",
    "address": "628 N. Center St",
    "address2": "",
    "city": "Thomaston",
    "state": "GA",
    "zip": "30286",
    "lat": 32.8971683,
    "lng": -84.327787,
    "charter_date": "10/27/1887"
  },
  {
    "id": 24,
    "name": "Meridian Sun",
    "lodge_num": 26,
    "lodge_phone": "",
    "meeting_times": "1st & 3rd Tue, 7:30 pm, 1st Tues only in Dec",
    "address": "315 Wesley Ave",
    "address2": "",
    "city": "Griffin",
    "state": "GA",
    "zip": "30224",
    "lat": 33.216225,
    "lng": -84.2796819,
    "charter_date": "11/12/1842"
  },
  {
    "id": 23,
    "name": "Philomathea",
    "lodge_num": 25,
    "lodge_phone": "",
    "meeting_times": "1st Tue, 7:30 pm",
    "address": "119 Industrial Blvd.",
    "address2": "",
    "city": "Elberton",
    "state": "GA",
    "zip": "30635",
    "lat": 34.1153677,
    "lng": -82.8682188,
    "charter_date": "10/30/1846"
  },
  {
    "id": 22,
    "name": "Albany",
    "lodge_num": 24,
    "lodge_phone": "",
    "meeting_times": "1st & 3rd Mon, 7:30 pm, 1st Mon. only in Dec.",
    "address": "941 18th Ave",
    "address2": "",
    "city": "Albany",
    "state": "GA",
    "zip": "31701",
    "lat": 31.612031,
    "lng": -84.174784,
    "charter_date": "11/12/1842"
  },
  {
    "id": 21,
    "name": "LaFayette",
    "lodge_num": 23,
    "lodge_phone": "",
    "meeting_times": "2nd Thu, 7:30 pm",
    "address": "253 East Liberty St",
    "address2": "",
    "city": "Washington",
    "state": "GA",
    "zip": "30673",
    "lat": 33.7357865,
    "lng": -82.7374254,
    "charter_date": "11/00/1842"
  },
  {
    "id": 20,
    "name": "Mount Vernon",
    "lodge_num": 22,
    "lodge_phone": "",
    "meeting_times": "2nd & 4th Thu, 7:30 pm, Nov & Dec 2nd Thu only",
    "address": "365 Research Dr",
    "address2": "",
    "city": "Athens",
    "state": "GA",
    "zip": "30605",
    "lat": 33.9300132,
    "lng": -83.3503799,
    "charter_date": "11/00/1842"
  },
  {
    "id": 18,
    "name": "Generous Warren",
    "lodge_num": 20,
    "lodge_phone": "770-231-2124",
    "meeting_times": "1st & 3rd Tue, 7:30 pm, 3rd Tue only Jul",
    "address": "415 W. Highland Ave",
    "address2": "",
    "city": "Monroe",
    "state": "GA",
    "zip": "30655",
    "lat": 33.7952851,
    "lng": -83.7214441,
    "charter_date": "11/00/1841"
  },
  {
    "id": 16,
    "name": "Strict Observance",
    "lodge_num": 18,
    "lodge_phone": "",
    "meeting_times": "2nd & 4th Tue, 7:30 pm, Jun, Jul & Aug 2nd Tue Only",
    "address": "56 North Jackson St",
    "address2": "",
    "city": "Forsyth",
    "state": "GA",
    "zip": "31029",
    "lat": 33.0354501,
    "lng": -83.9394215,
    "charter_date": "12/00/1823"
  },
  {
    "id": 15,
    "name": "Hamilton",
    "lodge_num": 16,
    "lodge_phone": "",
    "meeting_times": "2nd Tue, 7:30 pm",
    "address": "310 Blanton St",
    "address2": "",
    "city": "Hamilton",
    "state": "GA",
    "zip": "31811",
    "lat": 32.7577315,
    "lng": -84.8727169,
    "charter_date": "10/30/1868"
  },
  {
    "id": 14,
    "name": "Zerubbabel",
    "lodge_num": 15,
    "lodge_phone": "912-266-5362",
    "meeting_times": "2nd & 4th Thu, 7:00 pm, 2nd Thu only Jun, Jul, Aug, Nov & Dec",
    "address": "341 Bull St",
    "address2": "",
    "city": "Savannah",
    "state": "GA",
    "zip": "31401",
    "lat": 32.073112,
    "lng": -81.094334,
    "charter_date": "11/00/1840"
  },
  {
    "id": 13,
    "name": "Marion",
    "lodge_num": 14,
    "lodge_phone": "",
    "meeting_times": "1st Tue, 7:00 pm",
    "address": "3739 Dr. Daryl Hart Rd",
    "address2": "",
    "city": "Tazewell",
    "state": "GA",
    "zip": "31803",
    "lat": 32.3804271,
    "lng": -84.4407513,
    "charter_date": "11/00/1840"
  },
  {
    "id": 12,
    "name": "M. B. Council",
    "lodge_num": 13,
    "lodge_phone": "",
    "meeting_times": "1st Tue, 7:30 pm",
    "address": "1209 Crawford St",
    "address2": "",
    "city": "Americus",
    "state": "GA",
    "zip": "31709",
    "lat": 32.0753929,
    "lng": -84.2154428,
    "charter_date": "11/00/1838"
  },
  {
    "id": 11,
    "name": "Latham",
    "lodge_num": 12,
    "lodge_phone": "",
    "meeting_times": "1st & 3rd Thu, 7:30 pm, 1st Thu only in Dec.",
    "address": "5900 Love St",
    "address2": "",
    "city": "Austell",
    "state": "GA",
    "zip": "30168",
    "lat": 33.8122336,
    "lng": -84.6344025,
    "charter_date": "11/00/1838"
  },
  {
    "id": 10,
    "name": "Franklin",
    "lodge_num": 11,
    "lodge_phone": "",
    "meeting_times": "2nd Mon, 7:00 pm",
    "address": "3473 Gibson St",
    "address2": "",
    "city": "Warrenton",
    "state": "GA",
    "zip": "30828",
    "lat": 33.3953511,
    "lng": -82.6603723,
    "charter_date": "10/27/1887"
  },
  {
    "id": 8,
    "name": "Mount Hope",
    "lodge_num": 9,
    "lodge_phone": "478-298-1261",
    "meeting_times": "2nd & 4th Mon, 7:00 pm -- May, June, July, Aug., & Dec 2nd Mon. only.",
    "address": "446 Perry Highway",
    "address2": "",
    "city": "Hawkinsville",
    "state": "GA",
    "zip": "31036",
    "lat": 32.30566,
    "lng": -83.500721,
    "charter_date": "08/27/1836"
  },
  {
    "id": 7,
    "name": "Orion",
    "lodge_num": 8,
    "lodge_phone": "",
    "meeting_times": "1st, 3rd & 5th Thu, 7:30 pm",
    "address": "627 E. Louise St.",
    "address2": "",
    "city": "Bainbridge",
    "state": "GA",
    "zip": "39819",
    "lat": 30.8936939,
    "lng": -84.5712825,
    "charter_date": "11/00/1838"
  },
  {
    "id": 6,
    "name": "Columbian",
    "lodge_num": 7,
    "lodge_phone": "",
    "meeting_times": "1st & 3rd Tue, 7:00 pm, 1st Tue only Dec",
    "address": "1127 Second Ave",
    "address2": "",
    "city": "Columbus",
    "state": "GA",
    "zip": "31901",
    "lat": 32.467781,
    "lng": -84.990823,
    "charter_date": "01/12/1841"
  },
  {
    "id": 5,
    "name": "Golden Fleece",
    "lodge_num": 6,
    "lodge_phone": "7703650627",
    "meeting_times": "2nd & 4th Tue, 7:30 pm, 2nd Tue only Dec",
    "address": "1104 Clark St",
    "address2": "",
    "city": "Covington",
    "state": "GA",
    "zip": "30014",
    "lat": 33.5968629,
    "lng": -83.8605282,
    "charter_date": "10/27/1865"
  },
  {
    "id": 4,
    "name": "Macon",
    "lodge_num": 5,
    "lodge_phone": "(478) 951-0859",
    "meeting_times": "1st & 3rd Mon, 7:30 pm",
    "address": "222 Mecca Drive",
    "address2": "",
    "city": "Macon",
    "state": "GA",
    "zip": "31206",
    "lat": 32.8375752,
    "lng": -83.6284999,
    "charter_date": "12/14/1826"
  },
  {
    "id": 3,
    "name": "Rising Star",
    "lodge_num": 4,
    "lodge_phone": "",
    "meeting_times": "2nd & 4th Mon, 7:30 pm, 2nd Mon only in May & Dec",
    "address": "802 Monticello Hwy",
    "address2": "",
    "city": "Eatonton",
    "state": "GA",
    "zip": "31024",
    "lat": 33.3183946,
    "lng": -83.4196376,
    "charter_date": "12/00/1824"
  },
  {
    "id": 2,
    "name": "Benevolent",
    "lodge_num": 3,
    "lodge_phone": "",
    "meeting_times": "1st & 3rd Tue, 7:30 pm",
    "address": "102 E. Hancock St.",
    "address2": "",
    "city": "Milledgeville",
    "state": "GA",
    "zip": "31061",
    "lat": 33.081538,
    "lng": -83.226839,
    "charter_date": "10/20/1818"
  },
  {
    "id": 1,
    "name": "Gate City",
    "lodge_num": 2,
    "lodge_phone": "",
    "meeting_times": "2nd& 4th Tue, 2nd Tue only Jun, Aug & Dec, 4th Tue in Jul, 7:30 pm",
    "address": "1690 Peachtree St NW",
    "address2": "",
    "city": "Atlanta",
    "state": "GA",
    "zip": "30309",
    "lat": 33.7998147,
    "lng": -84.3930596,
    "charter_date": "11/00/1856"
  },
  {
    "id": 163,
    "name": "Social",
    "lodge_num": 1,
    "lodge_phone": "",
    "meeting_times": "2nd Tue, 7:00 pm",
    "address": "3201 Wrightsboro Rd",
    "address2": "",
    "city": "Augusta",
    "state": "GA",
    "zip": "30909",
    "lat": 33.4698312,
    "lng": -82.0610128,
    "charter_date": "10/27/1856"
  },
  {
    "id": 130,
    "name": "Solomon's",
    "lodge_num": 1,
    "lodge_phone": "",
    "meeting_times": "1st & 3rd Thu, 7:30 pm, 1st Thu only Jul, Aug & Dec",
    "address": "100 East Bay St",
    "address2": "",
    "city": "Savannah",
    "state": "GA",
    "zip": "31401",
    "lat": 32.081156,
    "lng": -81.089884,
    "charter_date": "10/27/1856"
  }
]